stop_id,stop_code,stop_name,stop_desc,stop_lat,stop_lon,zone_id,stop_url,location_type,parent_station
9333,4108,San José Zahar - Egoitza / Asilo,,43.1852827397549,-3.05981638865273,,,0,
9334,4509,Trabakua,,43.2122894804364,-2.54350951856909,,,0,
9335,3182,Autzagane,,43.2433704110087,-2.71673396221697,,,0,
9336,4937,Alto Alday,,43.3044533871731,-3.02835369844856,,,0,
9337,4131,Kautela Gandia Goikoa,,43.4028189707648,-2.93959311026938,,,0,
9338,5158,Imitte,,43.1197142948079,-2.59425557348117,,,0,
9339,2999,Zumalakarregi 56 Santutxu,,43.2556975480541,-2.91094776504923,,,0,
9340,4244,Udaletxea / Ayuntamiento,,43.2097613719036,-3.09469135853648,,,0,
9344,5547,Arriagane Industrialdea,,43.2276792967136,-2.749279401755,,,0,
9345,4667,Atxuri,,43.3580431310232,-2.85789196506318,,,0,
9346,3846,Olabe,,43.3781155127393,-2.57555976973905,,,0,
9347,4487,Urizar Pilotalekua / Frontón,,43.413701922946,-2.90264747759054,,,0,
9348,5319,Magdalenabidea Magdalena,,43.3258159239182,-2.95633202982299,,,0,
9349,0536,Sendeja,,43.2627294999099,-2.92313967729358,,,0,
9350,3597,Zubiaur´Tar Kepa Udal Azoka,,43.4197303694052,-2.72818766105823,,,0,
9352,4911,Primero De Mayo 53,,43.3006254608856,-3.03233429645632,,,0,
9353,5532,Loiola,,43.3048528883798,-2.64054405510793,,,0,
9354,1007,Txakolí,,43.2650151865651,-2.90827255903874,,,0,
9355,3268,Olatxu Bidetxe,,43.3275929862691,-2.76695996070423,,,0,
9356,4087,Azkarai,,43.1882473764262,-3.04534311701944,,,0,
9357,5527,San Roque,,43.3432873568209,-3.08787533396337,,,0,
9358,3116,Trañabarren,,43.1666516717063,-2.61101930871301,,,0,
9359,4000,Soietxe,,43.3352773965943,-2.80219909129466,,,0,
9360,3293,Severo Ochoa 13 Caja Laboral,,43.2070240109792,-2.88668241675693,,,0,
9361,5283,Altzaga Pasaia / Pasaje,,43.3026893425,-2.97708708842483,,,0,
9362,4183,Algortako Etorb. 17 Txomintxu,,43.3415822149554,-3.00945699023017,,,0,
9363,3415,La Llana,,43.0993724152589,-3.04973144932428,,,0,
9364,1051,Moyua Plaza Ogasuna / Hacienda,,43.262647589543,-2.93542743487953,,,0,
9365,4243,Udaletxea / Ayuntamiento,,43.2107422857481,-3.09541921542989,,,0,
9366,4504,Eliza,,43.3628921747014,-2.50271583116662,,,0,
9367,4147,Salsidu Getxo I,,43.3534955447504,-3.00399212550905,,,0,
9368,0378,Zumalakarregi 121 Begoña,,43.2603553663874,-2.91408278838193,,,0,
9369,3817,Makaztui,,43.0942125469695,-2.71640363921193,,,0,
9370,3410,Inzier,,43.1338305780971,-3.03431547835573,,,0,
9371,0438,Campo Volantín Funikularra,,43.267226329756,-2.92767672747892,,,0,
9372,3126,Las Carreras Ambrosio De Los Heros 20,,43.3184603903939,-3.0953260300647,,,0,
9373,3118,Astola,,43.161133801516,-2.61163257897629,,,0,
9374,9022,Ametza,,43.3632455748254,-2.80763680464611,,,0,
9375,4044,Gorordo,,43.3692655032178,-2.88411888753295,,,0,
9376,4065,Errekalde,,43.345339905887,-2.6531605754981,,,0,
9377,5018,Geltokia / Estación,,43.3118606939707,-3.06101023645887,,,0,
9378,4799,Korostondo,,43.0508184674333,-2.6608217098688,,,0,
9379,4584,Bidebieta,,43.3735034552669,-2.80087200380651,,,0,
9380,3624,Erribera,,43.309090966896,-2.46888831927193,,,0,
9381,1057,Santa Ana Galdetegia / Fundición,,43.2468344628999,-2.9077211391439,,,0,
9382,5534,Zubiate,,43.3083333692055,-2.6434865655526,,,0,
9383,4374,Zugatzarte,,43.357587151444,-2.91493086788863,,,0,
9384,3340,Burtzeña Batzokia,,43.2793407053659,-2.97901911487483,,,0,
9385,0150,Deustuko Unibertsitatea Pío X Plaza,,43.2709800351522,-2.94122742945984,,,0,
9386,1061,Zorrotza Fray Juan 8,,43.2766736373586,-2.97160090990979,,,0,
9387,5286,Lutxana,,43.2911620215125,-2.9712609696162,,,0,
9388,3908,Gipuzkoa Etorbidea 1,,43.1845734461088,-2.50067151785928,,,0,
9389,4193,Avda. Del Angel 47 La Venta,,43.3615716361943,-3.01606231577052,,,0,
9390,3490,Gernikako Arbola 73,,43.2939843499826,-2.99962561027534,,,0,
9391,5099,La Jara,,43.2741512811972,-3.1482497247601,,,0,
9392,4074,Artekona,,43.1504191317308,-3.10592460916349,,,0,
9393,5554,Ugaran,,43.3475536268706,-2.50387774176814,,,0,
9394,4181,Algortako Etorb. 47 Kasinoa,,43.3481914473827,-3.0106423966828,,,0,
9395,5280,Udondoko Dartsena,,43.3149736124544,-2.99051667726694,,,0,
9396,3782,Udaletxea / Ayuntamiento,,43.1477064303305,-2.84887160017184,,,0,
9397,3656,Itxas Begi,,43.3919799140601,-2.69477158715795,,,0,
9398,3148,Los Heros,,43.3289261966572,-3.07339862908183,,,0,
9399,4158,Zientoetxe 45 Moreaga,,43.3738543158411,-3.0107945148431,,,0,
9400,3794,Aresandiaga,,43.1734856945654,-2.90117676833933,,,0,
9401,2200,Termibus 11. Nasa / Andén 11,,43.2610788212446,-2.94923351376399,,,0,
9402,3469,Buen Pastor,,43.2903347968758,-2.97652506000379,,,0,
9403,5428,Domartiena,,43.2861668833026,-2.87097868156982,,,0,
9404,4331,Kortazar,,43.3608234465767,-2.53979285081949,,,0,
9405,4772,Nesilla,,43.3062390537168,-3.12148420847742,,,0,
9406,3811,Arostegieta,,43.130109534436,-2.74434315914575,,,0,
9408,3399,La Torre,,43.1326794458442,-3.11543061309806,,,0,
9409,4179,La Avanzada 11 Antiguo Golf,,43.3344238969166,-3.00444767044957,,,0,
9411,4966,Anbulatorioa,,43.3253965960479,-3.03408590435527,,,0,
9412,5528,San Roque,,43.3421623840132,-3.08709645775343,,,0,
9413,3159,Txirriena,,43.2143663631328,-2.72728813019269,,,0,
9414,4069,Ugarte,,43.1919166149078,-3.04587872869889,,,0,
9415,5189,Goierri,,43.1759257272194,-2.53730289144172,,,0,
9416,5128,Elortza,,43.3731678095944,-2.94973014060421,,,0,
9417,3959,Ospitalea / Hospital,,43.2232002304375,-2.81927385049538,,,0,
9418,4921,Babcock,,43.2989136508072,-3.0137010338329,,,0,
9420,0263,Kastrexana,,43.2580606264157,-2.96983579832704,,,0,
9421,5059,Vía Galindo 13 Inem,,43.3073649176401,-3.00817019370239,,,0,
9422,1025,Elcano 16,,43.2611069544703,-2.93396409841834,,,0,
9423,4483,Urondo,,43.4265843716862,-2.89931558414119,,,0,
9424,4107,Sandamendi Pontón,,43.1787926435509,-3.08496680353302,,,0,
9425,4748,Las Duchas,,43.3286848331532,-3.13208688317311,,,0,
9426,3769,Areiltza,,43.1508289986278,-2.86519548937736,,,0,
9428,4617,Okoriko,,43.2921839283163,-2.76058777350602,,,0,
9429,5301,Arriluze,,43.3109249600463,-2.96385254224653,,,0,
9431,3335,San Ignacio 25,,43.2841597752449,-2.9900857539137,,,0,
9432,4585,Emerando,,43.3803773396559,-2.79036098744439,,,0,
9433,4962,Gernika Parkea,,43.3289441594895,-3.03487730786752,,,0,
9434,3523,Zumalakarregi Kotxetegia / Cocheras,,43.2845177513139,-2.97628090601368,,,0,
9435,4761,Somorrostro Ikastetxea,,43.3220041760893,-3.12327890479992,,,0,
9436,1058,Termibus 22 - 29 Nasak / Andenes 22 - 29,,43.2613223860035,-2.95023131439734,,,0,
9437,3350,Balejo Bolatokia / Bolera,,43.2854826844315,-2.98404584808714,,,0,
9438,4954,Txakoli Loroño,,43.2679456806359,-2.81763844371273,,,0,
9439,3960,Bizkai 12,,43.2326053921246,-2.84052654172051,,,0,
9440,4016,Laukike,,43.3294192202151,-2.8265055250473,,,0,
9441,4688,Anibarri,,43.33205695364,-2.83207345420917,,,0,
9442,5287,Enekuri,,43.2895019163416,-2.96063612597774,,,0,
9443,4414,Iturriondo Metro Leioa,,43.3184503205612,-2.99095875223425,,,0,
9444,4221,"Gobelaurre, 45",,43.3320107136291,-3.00326342838635,,,0,
9445,3856,Longa,,43.3811667383668,-2.60641913560261,,,0,
9446,4803,Astilleru,,43.3192149269719,-2.42130600155176,,,0,
9447,0628,Gran Vía 45 Sota,,43.2632696986645,-2.93683622429752,,,0,
9448,5124,Dobaran,,43.366911792509,-2.92189103306982,,,0,
9449,4342,Larrabetzu,,43.2621053797609,-2.7958094409807,,,0,
9450,3179,La Tejera,,43.2187533102986,-2.74002045257044,,,0,
9451,5077,Atxabiribil Bidegurutzea / Cruce,,43.3851901300159,-2.98428788108079,,,0,
9452,4428,Lamiako Metro,,43.3218761043156,-3.0013268115505,,,0,
9453,5341,Gernika Etorbidea Telefónica,,43.3029492013209,-2.97178533677936,,,0,
9454,3392,Puente Llanteno,,43.1404268165889,-3.10745084246958,,,0,
9456,4554,Zubibarri,,43.234535961424,-2.53138492728084,,,0,
9458,4122,Kiroldegia / Polideportivo,,43.4166891438275,-2.93741492285613,,,0,
9459,3510,La Florida 7,,43.2927947858355,-2.98669419951913,,,0,
9460,4123,Urezarantza Entrepinos,,43.4205686926215,-2.93497720945712,,,0,
9461,4869,Abaro 11,,43.3220319673781,-3.02087507373178,,,0,
9462,3631,Bekokale,,43.311745837395,-2.46374653093402,,,0,
9463,3969,El Bentorro Arenao,,43.2800692009332,-3.13953800718599,,,0,
9464,0104,Sarriko Lehendakari Aguirre 83,,43.2737607072075,-2.95759040642584,,,0,
9466,5353,Mezo 41 Elexazpi,,43.3157822262822,-2.97806848491232,,,0,
9467,4936,Ibarzaharra Fondo Promoción Empleo,,43.2987295804155,-3.00686849597482,,,0,
9468,4582,Likona,,43.3503093078606,-2.48964078887876,,,0,
9469,4458,Santa Ana,,43.322015301411,-3.00934344849391,,,0,
9470,4782,Kiroldegia / Polideportivo,,43.322433047059,-3.11791475783647,,,0,
9471,3038,Otaola Hiribidea Alfa,,43.1828591396123,-2.48108871553337,,,0,
9472,3929,Bengoetxe,,43.2324590329156,-2.85945527230476,,,0,
9473,3451,Gorostiola,,43.1605590330269,-3.0258914975752,,,0,
9474,4048,Basetxeta,,43.3668427958396,-2.64016476904535,,,0,
9475,3357,San Vicente Anteiglesia Plaza,,43.2952178502026,-2.99682717711657,,,0,
9476,4162,Zientotxea S / N Palacio,,43.3651551509238,-3.0179638087318,,,0,
9478,3354,Los Hermanos Juntas Generales 30,,43.298297095775,-2.9906873066541,,,0,
9479,3623,Gardotza,,43.3185321436184,-2.45642421700421,,,0,
9480,3942,Juan Bautista Uriarte 37 Zamakoa,,43.2303410990486,-2.844079101798,,,0,
9481,3113,Muntsaratz,,43.1461415736495,-2.60657495032579,,,0,
9482,4595,Mesterika,,43.3623729446035,-2.80287576170543,,,0,
9483,4652,Estrata,,43.2978304258168,-2.72870894786783,,,0,
9484,4776,San Julián,,43.3332071774114,-3.1132107164674,,,0,
9485,3135,El Minero 33,,43.3118988285512,-3.07307034729859,,,0,
9486,4425,Ehu Errektoretza / Rectorado,,43.3321685053257,-2.97196177839208,,,0,
9487,5339,Altzaga - Erandiogoikoa Basabe,,43.3014582803713,-2.96923512990555,,,0,
9488,0125,Deustuko Unibertsitatea Avda. Universidades,,43.2702663699219,-2.93691512615447,,,0,
9489,1052,Moyua Plaza Barclays Bank,,43.2634713095615,-2.93506049378101,,,0,
9490,5291,Enekuri,,43.2891960193191,-2.96140057552094,,,0,
9491,4177,Algortako Etorb. 74 Kasinoa,,43.3480564019707,-3.01039560200681,,,0,
9492,4207,Mayor Kalea 16,,43.3259050259315,-3.01288009911475,,,0,
9493,4120,Urezarantza Entrepinos,,43.4205597751944,-2.93513039951023,,,0,
9494,3107,Zelaieta,,43.1500723520339,-2.61057139342375,,,0,
9495,4289,Elejalde 12,,43.3897555616443,-2.63121966763599,,,0,
9496,3767,Olatxu,,43.1542661924665,-2.87474205880861,,,0,
9498,3461,Villa Chica Eliza / Iglesia,,43.1504093750716,-3.03106522124266,,,0,
9499,4972,Balparda,,43.3192787352991,-3.04516985452606,,,0,
9500,3795,Uriondo,,43.1625077028646,-2.88540618680843,,,0,
9501,4693,Atxuri,,43.3585120076886,-2.85840917897914,,,0,
9502,4683,Beasko Maurolas,,43.329272141788,-2.87157723824538,,,0,
9504,4666,Trobika Auzoa,,43.3577632844049,-2.83666088000815,,,0,
9505,4258,Zeribai,,43.1990531872825,-3.05541072202812,,,0,
9506,4963,Anbulatorioa,,43.3248098885126,-3.03488012281811,,,0,
9507,4686,Belako,,43.3461096333925,-2.8182848340798,,,0,
9508,3271,Olatxu Bidetxe,,43.3277184054673,-2.76664371981023,,,0,
9509,4785,San Juan 16,,43.3228821852122,-3.12741238805623,,,0,
9512,3188,San Pedro Geralekua / Apeadero,,43.2221150660989,-2.73500457978633,,,0,
9513,5507,Kortatxu,,43.2381825830181,-3.00115441257549,,,0,
9514,4961,Parkea / Parque Capitán Mendizabal 2,,43.3301605123934,-3.03237388955237,,,0,
9515,4026,Garai Irubide,,43.3599210146144,-2.87758374840453,,,0,
9516,4601,Torre De Ugao Geltokia / Estación,,43.1793309678116,-2.90251825576274,,,0,
9517,4205,Santa Ana 2,,43.3252296243754,-3.01338811446595,,,0,
9518,5178,Igorreko Industrialdea,,43.159158027362,-2.77353373367739,,,0,
9519,5141,Institutua / Instituto,,43.1913640348874,-3.18998090569664,,,0,
9520,3309,Olaskoetxe Irubide,,43.4271748877164,-2.81178231526874,,,0,
9521,3166,Berna,,43.1870267545322,-2.6758308615681,,,0,
9522,3554,Kareaga Goikoa 111 Udaletxea / Ayuntamiento,,43.2356541927257,-2.89119806914825,,,0,
9523,5167,Areatza,,43.1212535953431,-2.76992966799846,,,0,
9524,5467,Goierria,,43.3512144050861,-2.68221057568091,,,0,
9525,5035,Chavarri Gasolindegia / Gasolinera,,43.313298824978,-3.01076048448587,,,0,
9526,3838,Zarakondegi,,43.3701271772682,-2.56560554699567,,,0,
9530,5381,Larrondo Elotxelerri,,43.2971381174538,-2.91279745376854,,,0,
9531,5214,San Pedro Zarikete Ermita,,43.2094979429615,-3.14097888044055,,,0,
9533,9030,Musakola,,43.0712311869428,-2.47241398596267,,,0,
9535,4023,Zurbano,,43.3499192608978,-2.88843767864441,,,0,
9536,4838,Olabarri,,43.0991806813723,-2.91601915828772,,,0,
9538,4036,Zurbano,,43.3499580081217,-2.89117685190525,,,0,
9540,3171,Gane,,43.2161763198229,-2.72842507347477,,,0,
9541,5463,Elejalde,,43.3394661013261,-2.65516802360015,,,0,
9542,4283,Okamika,,43.3304734557765,-2.54308151321418,,,0,
9543,5182,Garakoi,,43.1782784134552,-2.77508712927633,,,0,
9544,5422,Izarza Eliza / Iglesia,,43.2973185669827,-2.92595148098235,,,0,
9545,4231,La Cuadra,,43.2242049461335,-3.02429167369954,,,0,
9546,4237,Lakabex Iberdrola,,43.2180176314199,-3.02884501547566,,,0,
9547,4135,Sertutxe,,43.4168583164102,-2.92676564594277,,,0,
9548,0271,Zorrotza,,43.2750170598541,-2.97274779248791,,,0,
9549,3522,La Paz 43,,43.2821427573195,-2.9903450344341,,,0,
9550,5331,Altzaga - Erandiogoikoa Uribarri,,43.303836931605,-2.95965259258364,,,0,
9551,5040,Urbinaga La Naval,,43.3063471126509,-2.98945281977492,,,0,
9552,4236,Sodupe Gelokia / Estación,,43.2022234331433,-3.05049203339398,,,0,
9553,3855,Urtubia,,43.3707664400141,-2.5756642203535,,,0,
9555,4472,Arraibi - Tallerreta,,43.2078211905581,-2.76951262022871,,,0,
9556,4867,General Castaños 2 El Cristo,,43.3195562043676,-3.01735950559514,,,0,
9557,3477,Llano,,43.2863559871086,-2.98302255552592,,,0,
9559,3793,Aresandiaga,,43.1736751115209,-2.90154310392577,,,0,
9560,0526,Atxuri 4,,43.2549944716406,-2.92219671980672,,,0,
9561,3210,Urebei,,43.2745757677765,-2.59383908370952,,,0,
9562,4754,El Haya,,43.3385078133857,-3.151078068575,,,0,
9563,3165,Berna,,43.1867738220112,-2.67554916182294,,,0,
9564,3916,Bengoetxe,,43.2321432926616,-2.8589880223987,,,0,
9565,5075,Ander Deuna Ermita,,43.3905351261805,-2.97887214391397,,,0,
9566,9027,Bizkotxalde,,43.2403135523976,-2.88597977679116,,,0,
9567,5160,Apatamonasterio,,43.1296550407919,-2.58414486029363,,,0,
9568,5537,Loiola,,43.3056591374897,-2.64065150717128,,,0,
9569,4160,Zientoetxe 19 Martiturri,,43.3688913123884,-3.01608263786749,,,0,
9570,4008,Gamiz,,43.3268444903286,-2.81818106280922,,,0,
9572,4112,Elexalde Udaletxea / Ayuntamiento,,43.4145168319456,-2.93359667445868,,,0,
9573,4668,Atxuri,,43.3580841258817,-2.8547573611819,,,0,
9574,1020,Iberdrola,,43.2470594500875,-2.98086621772373,,,0,
9575,4326,Gardata,,43.3637750024113,-2.51901807004052,,,0,
9576,4499,Zubitxu Hilerria / Cementerio,,43.4086961210995,-2.90332750514962,,,0,
9577,4261,Artxube,,43.2005847117561,-3.07077360823656,,,0,
9578,3130,El Casal,,43.32200686706,-3.07232001672375,,,0,
9579,4943,Salcedillo,,43.30446397276,-3.02102984127513,,,0,
9580,4330,Kortazar,,43.3600024594118,-2.53717055693801,,,0,
9581,5187,Avenida Bilbao,,43.1696281827138,-2.5500037299307,,,0,
9582,4501,Sabino Arana Telefónica,,43.3634597093532,-2.50900543609386,,,0,
9584,5098,La Baluga,,43.2740327993083,-3.15608736123291,,,0,
9585,3952,Zabalgane,,43.2302341721399,-2.83834069711456,,,0,
9586,4724,Beko Kale Torrebillela,,43.353781125887,-2.84870894861736,,,0,
9587,4452,Artatza Landabarri,,43.3320826697965,-2.99709577227703,,,0,
9588,4110,Puente Busterri Aterpetxea / Albergue,,43.4120284063051,-2.94411437667178,,,0,
9589,5220,Mimetiz Udaletxea / Ayuntamiento,,43.2140873528485,-3.13404773029974,,,0,
9590,4116,Itsasbide Caja Laboral,,43.4134558159408,-2.93608437920301,,,0,
9591,4758,Las Llanas,,43.3236012802062,-3.12854858222358,,,0,
9592,1056,Santa Ana Galdategia / Fundición,,43.2467445946491,-2.9079430003393,,,0,
9594,3935,Labeaga,,43.224903017523,-2.81989681830153,,,0,
9595,5363,Plaiabarri,,43.296662649778,-2.96683244735922,,,0,
9596,4593,Meñakabarrena,,43.3500110033182,-2.79838762683691,,,0,
9597,4362,Mentxakaetas Erreskondo,,43.3633441569194,-2.91922993706701,,,0,
9598,3039,Unibertsitatea Laborala / Universidad Laboral,,43.1801868828087,-2.48820584793167,,,0,
9599,3036,Escuela Armeria / Armeria Eskola Armeria,,43.1833246004723,-2.47914755060411,,,0,
9600,5458,Agarregane,,43.3452269063783,-2.67916977993952,,,0,
9601,2197,Abando Geltokia / Estación,,43.2601943652752,-2.92876940459103,,,0,
9602,4077,Allende,,43.1676951381633,-3.100689980161,,,0,
9603,1014,Artxanda El Gallo,,43.2707080693075,-2.9107161475147,,,0,
9604,5190,Lanbide Unibertsitatea / Universidad Laboral,,43.1790167277235,-2.49030737482018,,,0,
9605,3282,Urgoiti Anbulatorioa,,43.2077816584656,-2.8879489691714,,,0,
9606,3157,Boroa,,43.2285520083359,-2.75311792227491,,,0,
9607,4655,Kurtzero,,43.2892626689913,-2.68962913471678,,,0,
9608,3773,Ermitabarri,,43.146392673013,-2.83328366356881,,,0,
9609,4140,Ollaretxe 8 Getxo I,,43.3535585430637,-3.00485590645186,,,0,
9610,5404,Aireportua / Aeropuerto Etorrerak / Llegadas,,43.3054343107039,-2.90528875239208,,,0,
9612,4912,Primero De Mayo Udaletxea / Ayuntamiento,,43.3043971311367,-3.03652827706394,,,0,
9613,4375,Mentxakaetas Erreskondo,,43.3637943997121,-2.91925402322679,,,0,
9614,4409,Lamiako Pasai,,43.3187198760452,-3.00543350413304,,,0,
9616,4512,Zengotita,,43.1973516329663,-2.55517833815459,,,0,
9617,3967,Altzadi Plaza,,43.2327995811405,-2.84422061777803,,,0,
9618,4093,Isuskiza Hipika,,43.169590296234,-3.02834340048998,,,0,
9619,5289,Etxegorri Metro,,43.3150180980212,-2.98613380122188,,,0,
9620,3541,Goierri,,43.3957827655174,-2.97412353656901,,,0,
9621,4105,Mazukera,,43.1580016284968,-3.10547386353494,,,0,
9622,5544,Mendikoi Hotel Laia,,43.2938934556453,-2.8715909326502,,,0,
9623,5205,Aranguren,,43.2107155474592,-3.1149072208498,,,0,
9625,3183,Autzagane,,43.2436542650142,-2.718641852495,,,0,
9626,5155,Olazabal,,43.1121524161818,-2.59613345431648,,,0,
9627,4168,Los Chopos 11 Ardillas,,43.3359726943273,-3.00410237248023,,,0,
9628,4478,Larrabeiti,,43.2037945166289,-2.77324522934545,,,0,
9629,4757,Las Duchas,,43.3278475240918,-3.13198639315226,,,0,
9630,5359,Enekuri Gasolindegia / Gasolinera,,43.2860253292735,-2.95838283131472,,,0,
9631,4441,Amaia Anbulatorioa,,43.3243206060054,-3.00755528480631,,,0,
9632,4251,Iorgi 21b,,43.2059637481401,-3.04644282961822,,,0,
9633,5502,Nuestra Señora De La Guía,,43.2354626064074,-3.01217713776419,,,0,
9634,4297,Arriederra,,43.3853331846382,-2.63441288080294,,,0,
9635,3301,Goikolea,,43.4038341856967,-2.81099047147654,,,0,
9636,4463,Aldekoena,,43.3332882277729,-2.98487104763928,,,0,
9637,5045,Las Llanas,,43.3097871780778,-3.00907054397904,,,0,
9638,4505,Eliza,,43.3629348869701,-2.50218479600568,,,0,
9639,4250,Olabarrieta Las Jarretas,,43.2095404853972,-3.04139807548558,,,0,
9640,5081,Urgitxieta,,43.3754696026365,-2.98985906618978,,,0,
9641,5206,Aranguren,,43.2106970174913,-3.11542424084145,,,0,
9642,4498,Olalde,,43.4166390126996,-2.90449070185684,,,0,
9643,3628,Atxurra,,43.3245764287172,-2.49314716135346,,,0,
9644,5483,Mallabiena,,43.1764663808975,-2.64376004277208,,,0,
9645,4241,Sodupe Herriko Enparantza,,43.2002899806246,-3.04828508266044,,,0,
9646,5219,San Pedro Zarikete Ermita,,43.2094981249051,-3.14083115382612,,,0,
9647,5175,Gezala,,43.1719599246951,-2.77656084486503,,,0,
9648,5313,Lukileze,,43.3007130310645,-2.9616889393935,,,0,
9649,3035,Pol. Otaola Otaola,,43.1816663890544,-2.48280391597603,,,0,
9650,4170,Bizkaia Zubia / Puente Bizkaia,,43.3239867295234,-3.0154735904431,,,0,
9651,4343,Goikola,,43.2659685950928,-2.79094155463083,,,0,
9653,3535,Zahar - Egoitza / Asilo,,43.4053236323369,-2.96359194324528,,,0,
9654,3806,Zumeltza Dima Gane,,43.0730240420398,-2.68241565085304,,,0,
9655,5478,Arriandi,,43.1817759670441,-2.65723059090305,,,0,
9656,5011,Etxaba,,43.3079327923122,-3.04555627273316,,,0,
9657,0604,Alameda Recalde 14,,43.2660774479484,-2.93381443537466,,,0,
9658,4397,Artatza Suhiltzaileak / Bomberos,,43.330488836211,-2.99623239840446,,,0,
9659,4878,Carlos VII 4,,43.3200869864584,-3.02082519960232,,,0,
9660,4745,El Crucero,,43.322200795725,-3.11608885413488,,,0,
9662,0922,Juan De Garay Torre Urizar,,43.2526338424665,-2.93432201247045,,,0,
9663,3653,Axpe,,43.3821710508538,-2.69870233660097,,,0,
9664,5181,Garbe,,43.1613375506473,-2.78300968437579,,,0,
9665,4229,Gobela Ikastola,,43.3382418257379,-2.99958734184539,,,0,
9666,3798,Dima Plaza,,43.1431656273903,-2.7520050488822,,,0,
9667,3801,Dima Plaza,,43.1432105046804,-2.75193723249023,,,0,
9668,5047,Hilerria / Cementerio,,43.312236050863,-3.01299226323628,,,0,
9669,3328,Burtzeña Pilotalekua / Frontón,,43.2803310551456,-2.97815603438541,,,0,
9670,4705,Landabarrena,,43.3895375694934,-2.79933134126308,,,0,
9671,3173,Boroa,,43.2289590476514,-2.7539658566183,,,0,
9672,4930,Funikular Kalea,,43.3037301010971,-3.03862526352575,,,0,
9673,5454,Torrelarragoiti,,43.2756082835346,-2.85178826991423,,,0,
9674,3517,Obispo Olaetxea,,43.2903345159146,-2.97519375710957,,,0,
9675,5517,San Mamés,,43.3502307728585,-3.09603439214256,,,0,
9676,3412,Zerrabe,,43.1062899936742,-3.04518954497748,,,0,
9677,4148,Salsidu Basotxi,,43.3555485484543,-3.00142552511533,,,0,
9678,4969,Igerilekuak / Piscinas,,43.3269654855422,-3.02573647111172,,,0,
9679,5258,San Cristobal,,43.3001138175922,-2.87814899844572,,,0,
9680,5265,Ugaldeguren Industrialdea,,43.2894325485751,-2.8895135951105,,,0,
9681,4184,Algortako Etorb. 13 Regoyos,,43.3388268767484,-3.00876583159634,,,0,
9682,4189,Eduardo Coste,,43.3208896182316,-3.01153855982607,,,0,
9683,2199,Abando Geltokia / Estación,,43.259951499183,-2.92918859314099,,,0,
9684,4682,Bolatoki,,43.3347765507876,-2.86608839305028,,,0,
9685,4298,Arriederra,,43.3853010340265,-2.6342143019514,,,0,
9686,0917,Bizkaia Plaza,,43.2603179029585,-2.93721308947875,,,0,
9687,9024,Gallarta,,43.3174175964145,-3.07469237470141,,,0,
9688,4196,San Martin 33 - 35,,43.3556200118764,-3.01239586364773,,,0,
9689,3647,Eitua Industrialdea Estampados,,43.1669937545402,-2.58505210520492,,,0,
9690,4035,Botiola,,43.353984178039,-2.88338315011259,,,0,
9691,4752,Las Acacias,,43.3204029749056,-3.13003412674053,,,0,
9692,3213,Astorkigane,,43.272569465551,-2.60714948638544,,,0,
9693,5242,Hilerria / Cementerio,,43.292582943039,-2.89305557527131,,,0,
9694,5512,Virgen Del Puerto Lazkano,,43.3515054832353,-3.07970601898953,,,0,
9695,4526,Dokaitz / Donagarai,,43.2134378803155,-2.53799777712442,,,0,
9696,3109,Andra Mari,,43.1430680978518,-2.6031760288067,,,0,
9698,3120,Zubibitarte,,43.1686991452171,-2.61201511099379,,,0,
9699,9016,Aizpuru,,43.309895273405,-3.00724559691119,,,0,
9700,4904,Azeta,,43.3154507595251,-3.01237622699797,,,0,
9701,3621,Erribera,,43.3091788897383,-2.46843131947202,,,0,
9702,4479,Txitxotegi,,43.1928401395326,-2.77553813647082,,,0,
9703,4507,Zubia,,43.3607064437128,-2.49913020850593,,,0,
9704,4953,Iberre,,43.2700012561554,-2.82215094402083,,,0,
9705,5034,Chavarri 34 Arboleda,,43.3124165379122,-3.00760350533471,,,0,
9706,3277,Libao Arrieta,,43.3418382096216,-2.76932087660503,,,0,
9707,3191,Ategorri,,43.2269976254182,-2.73053914811895,,,0,
9708,3843,Beñaga Tres Cruces,,43.3823562528097,-2.61760015947051,,,0,
9709,4051,Zelaieta Arteaga,,43.3529370138347,-2.65081833634039,,,0,
9710,3555,Kareaga Goikoa 79 Burritos,,43.2379085220224,-2.89456256767941,,,0,
9711,3160,Montorra,,43.2058034349706,-2.71500659423351,,,0,
9712,3847,Olabe,,43.3780247371101,-2.57536288917036,,,0,
9714,4081,Zubieta 10 La Industria,,43.1805683243149,-3.06870838398699,,,0,
9715,4480,Txitxotegi,,43.1932270766567,-2.7754013379687,,,0,
9716,3190,San Miguel,,43.2180754912894,-2.73074108518223,,,0,
9717,5072,Zipiriñe Akilino Arriola,,43.378824241694,-2.98651294527566,,,0,
9719,4220,Andra Mari,,43.3638199785211,-3.01666148373321,,,0,
9720,3735,Ugarte,,43.1280285614106,-2.77839455133171,,,0,
9721,3771,Udaletxea / Ayuntamiento,,43.1475401737608,-2.84912412172896,,,0,
9722,4366,Uribarri,,43.3502476230291,-2.90270095749321,,,0,
9723,5548,Ugaran,,43.347083052161,-2.50333868784917,,,0,
9724,4581,Likona,,43.3510933320267,-2.4897822890145,,,0,
9725,1053,Moyua Plaza Deutsche Bank,,43.2633134195135,-2.93451975099995,,,0,
9727,4859,Mungia Bidea 14,,43.4044103760724,-2.94356575422375,,,0,
9728,4723,Elorduigoitia 5 Inem,,43.3553091270447,-2.84669730789412,,,0,
9730,3133,Institutua / Instituto,,43.3172555702843,-3.07460585000616,,,0,
9731,3951,Uraska,,43.2276216569481,-2.81939624511615,,,0,
9732,4320,Goikoetxe,,43.3854453460646,-2.62183027633134,,,0,
9734,4739,Angiz,,43.3037329109337,-2.5461054275278,,,0,
9736,3138,Udaletxea / Ayuntamiento,,43.3207143047343,-3.07295733400436,,,0,
9737,4267,Carlos Gangoiti,,43.3197876170358,-2.67844098436745,,,0,
9738,4169,Eduardo Coste,,43.3208536474076,-3.01105756414853,,,0,
9739,5553,Arana Seat,,43.2955221360853,-2.6868850372484,,,0,
9740,3583,Landaida Anbulatorioa,,43.3693389688493,-2.9986619097506,,,0,
9741,5163,Gane,,43.2121460702406,-2.81035655825399,,,0,
9742,4046,Zelaieta Arteaga,,43.3529411128478,-2.6506862798677,,,0,
9743,4103,Zabaia Bekoa,,43.1739934864543,-3.02900723952308,,,0,
9744,3409,Menagarai,,43.0965414093184,-3.07311469920956,,,0,
9745,5303,Altzaga - Erandiogoikoa Irubideta,,43.3043240481649,-2.96219218982617,,,0,
9746,5263,Abeletxea / Granja,,43.2946195254604,-2.8686800575638,,,0,
9747,5524,Virgen Del Puerto Lazkano,,43.3513704565953,-3.07964661401042,,,0,
9748,4826,Aranguren,,43.0967061181964,-2.86981990096042,,,0,
9749,4454,Telleria Biribilgunea / Rotonda,,43.3371792389977,-2.99662662467181,,,0,
9750,4519,Urtiaga Industrialdea Ges,,43.1859977828518,-2.51993330851828,,,0,
9751,4736,Astudi,,43.2900446168721,-2.58109835882023,,,0,
9752,5153,Santiago,,43.1091292689643,-2.58557495509284,,,0,
9753,5046,Hilerria / Cementerio,,43.3125422362784,-3.01273336974902,,,0,
9754,4327,Gardata,,43.36390126878,-2.51906643942836,,,0,
9755,3108,Muntsaratz,,43.1456364251382,-2.60631993716413,,,0,
9756,5360,Axpe Erribera,,43.3131087648113,-2.98343376414378,,,0,
9757,3218,Agarre,,43.2736397919412,-2.6173873670972,,,0,
9758,5325,Libao Arostegi,,43.3303194164835,-2.9622519293945,,,0,
9759,3175,Astepe,,43.2131196522483,-2.74152161828865,,,0,
9760,4938,Galindo,,43.305283944685,-3.01718307185799,,,0,
9761,4976,Iparragirre Sardinera,,43.3353531793016,-3.04155461829213,,,0,
9762,4977,Iparragirre Sardinera,,43.3352721023781,-3.04165325073062,,,0,
9763,5176,Urkizu,,43.1835264043917,-2.77416945031663,,,0,
9765,5354,Mezo 35 Juanena,,43.316719220597,-2.98095388548405,,,0,
9767,5254,Aldekone,,43.2984201060636,-2.88606728490903,,,0,
9768,4264,Lurgorri Juan Calzada,,43.3065685584016,-2.68134956636877,,,0,
9769,4657,Astelarra,,43.2806012457988,-2.68493461005323,,,0,
9770,4712,Aita Elorriaga Institutua,,43.3528361042901,-2.84244282010609,,,0,
9771,4726,La Bilbaina Arritugane,,43.3207418989364,-2.86137137647925,,,0,
9772,3759,Ugunagane,,43.1121046583343,-2.76337114813226,,,0,
9773,3879,San Pío X,,43.1305069211106,-2.54550898499424,,,0,
9774,5366,Mezo 36 Elexazpi,,43.3157012108911,-2.9782041661122,,,0,
9775,3852,Biax,,43.3819016871326,-2.5767185157705,,,0,
9776,3195,Tantorta,,43.2256452699928,-2.74357424415619,,,0,
9777,5435,Sandoikalde,,43.2887152963482,-2.85604584250013,,,0,
9778,3478,Erreketa,,43.3012675145424,-2.98214267183673,,,0,
9779,4359,Urkulu,,43.2516138680352,-2.80015641231063,,,0,
9781,4990,Iparragirre Iberdrola,,43.3393116361175,-3.05058771951029,,,0,
9782,5257,San Cristobal,,43.3000555632276,-2.87840802045422,,,0,
9784,3956,Sixta Barrenetxea,,43.2336318466677,-2.85402146698519,,,0,
9785,4495,Agarrabesko,,43.4207292368758,-2.91278433200141,,,0,
9786,9020,Mesterika,,43.3623372669091,-2.80307334031504,,,0,
9787,0839,San Ignacio Lehendakari Aguirre 154,,43.2788946488725,-2.96122246583761,,,0,
9788,3219,Berreño,,43.2733484992882,-2.61114108795464,,,0,
9789,0838,San Ignacio Lehendakari Aguirre 140,,43.2768682127939,-2.96009005307701,,,0,
9790,4259,Zeribai,,43.1989722038804,-3.05528756402863,,,0,
9791,3452,Irabien Batzokia,,43.1574072695223,-3.02619766998932,,,0,
9792,4787,El Pobal,,43.2992379254389,-3.12577310029895,,,0,
9793,3286,Bentako Erreka,,43.1893098263893,-2.89910319041814,,,0,
9794,4371,Uribarri,,43.3503645873174,-2.90258971946647,,,0,
9795,3153,Meatzaritzaren Museoa / Museo De La Minería,,43.3121886470023,-3.07025903591299,,,0,
9796,4623,Duo,,43.2965144189234,-2.75818504683888,,,0,
9797,4628,Sagasti Meakaur,,43.3075987347278,-2.7457696911653,,,0,
9798,3821,Santuru,,43.1482674291212,-2.76284135163065,,,0,
9801,3121,Gerediaga,,43.1699573723753,-2.60474970508456,,,0,
9802,0806,Zorrotza,,43.27595263892,-2.97161788256607,,,0,
9804,9029,Sixta Barrenetxea,,43.2334701703403,-2.85434205353979,,,0,
9805,4770,Antonio Trueba,,43.322049247739,-3.11457157112328,,,0,
9806,5204,Lusa,,43.2133468600787,-3.13001820063942,,,0,
9807,4868,Abaro 10,,43.321950878627,-3.02064071384127,,,0,
9808,5498,Lasao,,43.2454574928895,-2.98716125194474,,,0,
9809,3453,Irabien Vital Kutxa,,43.1552550336706,-3.0269225555783,,,0,
9810,5000,Parkea / Parque Siglo XVIII,,43.3284410352694,-3.03060925433011,,,0,
9811,3734,Herriko Plaza,,43.1328280360391,-2.78302726531996,,,0,
9812,5052,Gran Vía 64 Zahar - Egoitza / Asilo,,43.3076353329397,-2.99817017231795,,,0,
9813,4929,Trapaga Auzoa,,43.2993226553964,-3.01922820305117,,,0,
9815,3598,Etxetxubarri Mikel Deuna,,43.4194554671676,-2.73771308096724,,,0,
9816,3924,Askarri,,43.23374432897,-2.81350356658388,,,0,
9817,5444,Bidekurtze,,43.2962903949295,-2.86524913240229,,,0,
9818,3467,Larrea 17,,43.2976475104033,-2.98121922772754,,,0,
9819,5332,Altzaga - Erandiogoikoa Elexalde,,43.3074831793553,-2.95793613983265,,,0,
9820,4942,El Juncal Ford,,43.2940465781928,-3.01430781655892,,,0,
9821,4645,Etxe Barriak,,43.291556814401,-2.70245221553866,,,0,
9822,4282,Elexalde,,43.3312873576204,-2.53725335129992,,,0,
9824,1060,Zabalburu Juan De Garay,,43.2567486982247,-2.93382466293914,,,0,
9828,5215,Ibarra La Madalena,,43.2044687490458,-3.14468491369234,,,0,
9829,3914,Fruiz,,43.3276727425495,-2.7845856679298,,,0,
9830,3274,Olabarri,,43.3273517225162,-2.75500889197904,,,0,
9831,4049,Basetxeta,,43.3668465521952,-2.63992777376619,,,0,
9832,5500,Arbuio,,43.2362464209209,-3.00747246949842,,,0,
9833,4751,El Haya,,43.3385576427579,-3.15084749717389,,,0,
9834,5480,Akiñena,,43.1837489038678,-2.66350539713629,,,0,
9835,4210,Bidezabal Venancios,,43.3578984648578,-3.00912595878089,,,0,
9836,4033,Garai Irubide,,43.3597784397468,-2.87899090078433,,,0,
9837,5088,Abellaneda Eliza / Iglesia,,43.2306433930504,-3.15983200008104,,,0,
9838,4255,Padura,,43.1950676000825,-3.04756711917991,,,0,
9840,5050,Vicente Blasco Ibáñez San Pedro Plaza,,43.3077703115798,-3.00490256803349,,,0,
9841,3336,Retuerto 28,,43.2836379965844,-2.99741965080269,,,0,
9842,4351,Astoreka Zabortegia / Vertedero,,43.2786151049679,-2.7742229567256,,,0,
9843,5466,Barrutia,,43.3248695630244,-2.66715313043453,,,0,
9844,4900,Aspaldiko Egoitza / Residencia,,43.3195448990804,-3.02912497754932,,,0,
9845,4710,Tejera,,43.3456926540733,-2.81107324125905,,,0,
9846,5083,La Baluga,,43.274016030777,-3.15517537325564,,,0,
9847,3588,Harrizurieta,,43.388205653521,-2.77114960033994,,,0,
9848,3411,El Valle,,43.1199794382866,-3.03960610449284,,,0,
9849,3593,Sollube Gane,,43.4049906581299,-2.76053684794243,,,0,
9850,0836,San Ignacio Lehendakari Aguirre 161,,43.2793720818625,-2.96177677262691,,,0,
9851,3455,Villa Chica Eliza / Iglesia,,43.1506434911888,-3.03110223612121,,,0,
9852,3800,Indusi,,43.1210748407635,-2.73523490901824,,,0,
9853,4735,Goikolea,,43.2860092267302,-2.5856806258241,,,0,
9854,4641,Estrata,,43.297551954948,-2.7289925046183,,,0,
9855,4318,Apraiz,,43.3874586307164,-2.63172831839969,,,0,
9856,2196,Abando Geltokia / Estación,,43.2603832634791,-2.92844884267157,,,0,
9857,4292,Arboliz,,43.3889408019721,-2.62434742363225,,,0,
9858,4050,Muruetagane,,43.3594487923892,-2.63829563626547,,,0,
9859,3627,Aierdi,,43.3172041280495,-2.47866375237863,,,0,
9860,5028,Udaletxea / Ayuntamiento,,43.3104758521731,-3.05740451486412,,,0,
9862,3465,La Paz 27,,43.2813231155447,-2.98802805271615,,,0,
9864,4964,Cabieces,,43.3220996230449,-3.03819117329369,,,0,
9865,3812,Bentatxuri,,43.1257882463519,-2.744816025191,,,0,
9866,4577,Ibartxu,,43.2811028660359,-2.63051615103304,,,0,
9867,0106,San Pedro Plaza,,43.2717113113626,-2.9450468930394,,,0,
9868,3941,Udaletxea / Ayuntamiento,,43.2306981760062,-2.84181225888231,,,0,
9869,5376,Larrondo Elotxelerri,,43.2970664086995,-2.91322904459058,,,0,
9870,4072,Pontón Urarte,,43.176682018208,-3.08955585049841,,,0,
9871,5085,Cotarros,,43.2698464940837,-3.15392338743893,,,0,
9872,4620,Okoriko,,43.2918063611755,-2.76088757205565,,,0,
9873,3201,Zulueta,,43.3359443741203,-2.4981646890094,,,0,
9874,3787,Arkulanda,,43.1557871976029,-2.87815829653544,,,0,
9875,3799,Indusi,,43.1198127114017,-2.73465030712219,,,0,
9876,5352,Mezo 63 Saliturri,,43.315403014544,-2.97366611671973,,,0,
9877,5330,Altzaga - Erandiogoikoa Beititbekoa,,43.3020001511911,-2.96010998897909,,,0,
9878,4005,Fika,,43.3108739598325,-2.80917067496915,,,0,
9879,3289,Bentako Erreka,,43.1884037422092,-2.89786051114386,,,0,
9880,4494,Irubide,,43.420595119573,-2.90835587588473,,,0,
9881,3275,Madariaga,,43.3417447756792,-2.77895910580919,,,0,
9882,4517,Zengotita,,43.1975709388432,-2.55830301945044,,,0,
9883,3418,El Valle,,43.1194391017091,-3.03972868115922,,,0,
9884,3911,Mandaluiz,,43.339784751424,-2.78999550475957,,,0,
9885,4866,Begiratokia / Mirador,,43.3181698231754,-3.01506526496142,,,0,
9886,0302,Jesus Galindez Colegio Alemán,,43.2592078345655,-2.90899106679319,,,0,
9887,3858,Kukullaga,,43.2466825298329,-2.88876397769118,,,0,
9888,5038,Los Baños,,43.3105843534909,-2.99944633938621,,,0,
9889,3284,Aixarte Goikoa,,43.2029355138386,-2.89689756723614,,,0,
9890,5256,Mungialde Etorbidea 4,,43.2922812431408,-2.8882977771113,,,0,
9891,4550,Plazakola,,43.2968872004939,-2.47614599577949,,,0,
9892,4476,Zubi Ziku,,43.2062203302806,-2.77135541114863,,,0,
9893,4597,Meñakabarrena,,43.3500658557623,-2.79885632562904,,,0,
9894,3158,San Pedro Geralekua / Apeadero,,43.2216191914863,-2.73473953493654,,,0,
9895,5159,Martzaa,,43.1236869349828,-2.58684470661223,,,0,
9896,5042,Gran Vía 55 Zahar - Egoitza / Asilo,,43.3077522985417,-2.99792356083223,,,0,
9897,5521,La Cuesta 82,,43.3469141369906,-3.09061967298722,,,0,
9898,3220,Astorkigane,,43.2724574646634,-2.60731176464294,,,0,
9899,3291,Aixarte Goikoa,,43.2022423913426,-2.89716953523236,,,0,
9900,0223,Zumalakarregi Panera,,43.2649960149208,-2.91851197454036,,,0,
9901,3129,Las Carreras Ambrosio De Los Heros 29,,43.3183837548335,-3.09544183620764,,,0,
9902,4986,Iparragirre Repsol,,43.3429894933658,-3.06102832153246,,,0,
9903,1011,Bolueta Gasolindegia / Gasolinera,,43.2467657082166,-2.91188488045803,,,0,
9904,5522,Valle,,43.3422104166259,-3.08304986926306,,,0,
9905,4614,Elosu,,43.1718137087698,-2.8992478906711,,,0,
9906,5328,Altzaga - Erandiogoikoa Arriaga,,43.3032448467039,-2.96622460108399,,,0,
9907,5452,Ospitale Psikiatrikoa / Hospital Psiquiátrico,,43.2898563661964,-2.85405841648778,,,0,
9908,3622,Gardotza,,43.3189336949114,-2.45565589118464,,,0,
9909,4047,Muruetagane,,43.3594384993992,-2.63788844949963,,,0,
9910,4455,Telleria Biribilgunea / Rotonda,,43.3371522313169,-2.99683634405008,,,0,
9911,5348,Mezo 32 Juanena,,43.3166381813412,-2.98096624298981,,,0,
9912,3764,Santa Krutz,,43.1610782452638,-2.88315042028059,,,0,
9913,4030,Sertutxa,,43.3595050853306,-2.86802040881766,,,0,
9914,3521,Max Center N - 634,,43.2884733044536,-3.0083159525622,,,0,
9916,4670,Elgezabal Hornigailua / Surtidor,,43.3368341931992,-2.83539108558261,,,0,
9917,5465,Barrutia,,43.3244378170701,-2.6673158265125,,,0,
9918,3567,Etxerre,,43.2312346211762,-2.86788508993985,,,0,
9919,3560,Bilbondo,,43.2292223590144,-2.87965857993329,,,0,
9920,3044,Garibai,,43.064714458751,-2.48962497972893,,,0,
9921,3177,Gudari,,43.2199216103192,-2.73621579659356,,,0,
9922,1035,Gran Vía 79 Viajes Ecuador,,43.2645694776151,-2.94273696494061,,,0,
9923,3841,Natxitua,,43.3811236165301,-2.61387100203802,,,0,
9924,3645,Berriz - Olakueta,,43.1686251750465,-2.572509636836,,,0,
9925,5520,San Mamés,,43.3500597386729,-3.09597242768792,,,0,
9926,4235,Lambarri,,43.2062942069644,-3.08343483041467,,,0,
9927,5533,Uarka,,43.318834574593,-2.65436026650257,,,0,
9928,4204,Las Mercedes Aparkalekua / Aparcamiento,,43.3280392342459,-3.01172480724873,,,0,
9929,4246,Euskadi Plaza,,43.2124710423965,-3.09560657829503,,,0,
9930,3887,Gurutziaga,,43.1279704130427,-2.53949143597941,,,0,
9931,5123,Dobaran,,43.366435073893,-2.92265686597359,,,0,
9932,4853,Bide Zabala Sukarrieta,,43.3962974188886,-2.69811347832938,,,0,
9933,3417,Zerrabe,,43.1063351054203,-3.04496836003944,,,0,
9934,4603,San Bartolomé Chakala,,43.176125157446,-2.90240290029314,,,0,
9935,5129,Aita Gotzon Metro Urduliz,,43.3777267677698,-2.95602210442648,,,0,
9936,5477,Akiñena,,43.1832958998562,-2.66259729231227,,,0,
9937,3768,Olatzar,,43.1524335362737,-2.87054441981908,,,0,
9938,3548,Kareaga Goikoa 52 Udaletxea / Ayuntamiento,,43.2353526955412,-2.89136733186403,,,0,
9939,9015,Triano,,43.2955943782286,-3.06823096705437,,,0,
9940,0815,Autonomía 61 Lantik,,43.2578630479044,-2.94818070296649,,,0,
9941,4486,Goiko Errota,,43.4247399784744,-2.90104821722588,,,0,
9942,3345,Lutxana Eliza / Iglesia,,43.2906145727457,-2.97933549386162,,,0,
9943,4527,Dokaitz / Donagarai,,43.2133118178714,-2.53799872874086,,,0,
9944,5506,Aldanondo Elkartegia,,43.2414781072989,-2.99484803459897,,,0,
9946,1043,Lutxana Ribera De Elorrieta,,43.2883970406589,-2.96911758569986,,,0,
9947,3119,Trañabarren,,43.1667943647421,-2.61061243759252,,,0,
9948,5016,Udaletxea / Ayuntamiento,,43.3104669445721,-3.05721091060921,,,0,
9949,3346,Buen Pastor 76,,43.2901367025688,-2.97656211670803,,,0,
9950,3777,Undarraga,,43.1391628679321,-2.81082918193903,,,0,
9951,3796,Uriondo,,43.1625524839809,-2.88516377032262,,,0,
9952,4788,El Pobal,,43.2999422890464,-3.12393755817002,,,0,
9953,4197,San Martin Trinitarios,,43.3539811231115,-3.01297549852407,,,0,
9954,4294,Ibinaga,,43.3934976240188,-2.63283922882649,,,0,
9955,3880,San Pío X,,43.1306442731032,-2.54556132712496,,,0,
9956,4928,Causo,,43.2999243866044,-3.02703253372412,,,0,
9957,1036,Santa Marina Ospitalea,,43.2623088061399,-2.8830674006886,,,0,
9958,4619,Gerekiz,,43.2999276582696,-2.74001734729363,,,0,
9959,3281,Urgoiti Geltokia / Estación,,43.2101322155363,-2.88827090030468,,,0,
9960,4090,Azkarai,,43.1881799266163,-3.04512524552582,,,0,
9962,1041,Las Delicias,,43.2550986214291,-2.97194394101716,,,0,
9963,5551,Iturritxu Komentua / Convento,,43.2670898260428,-2.50000949560978,,,0,
9964,5070,Sertutxa,,43.3816504704591,-2.97922855370291,,,0,
9965,4213,Amaia 29 Anbulatorioa,,43.3238342984672,-3.00841870344078,,,0,
9966,5460,Elejalde,,43.3341447485392,-2.67677344009721,,,0,
9968,9011,El Campillo San Miguel,,43.3084838136661,-3.07654347038087,,,0,
9969,4338,Kizkibil Vista Alegre,,43.263287066048,-2.80242603520143,,,0,
9970,4689,Llona Cruce Meñaka,,43.3444932466126,-2.81542851291861,,,0,
9971,5262,Islabe,,43.3084658527312,-2.88279301403691,,,0,
9972,3757,Olabarri,,43.1031548183214,-2.75121234687592,,,0,
9973,4098,Mazukera,,43.1581636643209,-3.10552949348018,,,0,
9974,4901,Aspaldiko Egoitza / Residencia,,43.3200127246028,-3.03070380936344,,,0,
9975,4260,Artxube,,43.2008367384933,-3.07094622339157,,,0,
9976,5140,Institutua / Instituto,,43.19133566902,-3.1907930752976,,,0,
9977,4019,Udaletxea,,43.1937443496653,-2.61145772748008,,,0,
9978,5448,Teknologia - Parkea Itp,,43.2916796168905,-2.85748100441509,,,0,
9979,3198,Zulueta,,43.3357820925872,-2.49811914843779,,,0,
9981,0528,Atxuri 3,,43.2553456728995,-2.9223564303462,,,0,
9982,5120,Brioketenes,,43.369994972623,-2.94280846146668,,,0,
9983,1024,Egirletagoikoa Gasolindegia / Gasolinera,,43.2745734130082,-2.9030864416733,,,0,
9984,5015,Urioste,,43.3095059682718,-3.04032797524396,,,0,
9985,3599,Etxetxubarri Mikel Deuna,,43.4196710893248,-2.7375021478566,,,0,
9986,3459,Gorostiola,,43.1602348839155,-3.02578065446168,,,0,
9987,4186,Zugazarte 35 Reparadoras,,43.3314699209508,-3.01224342205095,,,0,
9988,4649,Elexalde,,43.2924620600156,-2.70783606491348,,,0,
9989,3292,Aixarte Bekoa Ikastola,,43.2042922901119,-2.89262067140881,,,0,
9990,5150,Iturralde,,43.1051845775593,-2.58297170496517,,,0,
9991,4200,Bolue 3,,43.3505057813957,-3.0086562139483,,,0,
9993,4746,Las Acacias,,43.3203852319371,-3.12979976282673,,,0,
9994,4253,Olabarrieta Las Jarretas,,43.2097387098467,-3.04106582235631,,,0,
9995,5307,Sakoni,,43.2997121659285,-2.95784311365627,,,0,
9996,4373,Modesene Hilerria / Cementerio,,43.3555046289941,-2.91166366049819,,,0,
9997,4201,Arene 22,,43.3484304127135,-3.00585998549152,,,0,
9998,3791,Elorrebieta,,43.1703659329622,-2.89644524908709,,,0,
9999,4353,Gaztelu,,43.2717187738633,-2.78414403651471,,,0,
10000,5557,Teknologia - Parkea Itp,,43.2914102450988,-2.85809798813021,,,0,
10001,4570,Olabe,,43.2834900939123,-2.63222357387474,,,0,
10002,4088,Zaldu Pilotalekua / Frontón,,43.1763294578626,-3.03192806620886,,,0,
10003,3176,La Tejera,,43.2187381721371,-2.7396991622251,,,0,
10004,4656,Astelarra,,43.2821344986502,-2.68586341425713,,,0,
10005,4971,Antonio Alzaga 19,,43.3231366076725,-3.03354208973479,,,0,
10006,4917,Ugarte,,43.2918312091834,-3.01604555315317,,,0,
10007,1032,Etxearte,,43.2646118506532,-2.88997545912039,,,0,
10008,4598,Pulealde,,43.347588305904,-2.80323231970599,,,0,
10009,3172,San Miguel,,43.218182092861,-2.73050545067816,,,0,
10010,3789,Santa Krutz,,43.161145645644,-2.88301744239071,,,0,
10011,3549,Gernika 8 Abaro,,43.223585607438,-2.88867090173862,,,0,
10012,3790,Arbildu,,43.1636763037331,-2.88790475064553,,,0,
10014,4216,Bidezabal Venancios,,43.3579974926478,-3.00939746612307,,,0,
10015,5087,El Carral,,43.249604051868,-3.15553259014595,,,0,
10016,0840,Plaza Levante Lehendakari Aguirre 172,,43.2817676628235,-2.96282291069933,,,0,
10017,0409,Begoña Basilika,,43.2589682759687,-2.91359191673662,,,0,
10018,4854,Geltokia / Estacion Metro,,43.4019085691035,-2.94654442386414,,,0,
10019,3903,Gipuzkoa Etorbidea 23,,43.1797344549319,-2.49783180505856,,,0,
10020,4348,Astoreka Zabortegia / Vertedero,,43.2785427763242,-2.77407533023717,,,0,
10021,4727,La Bilbaina Arritugane,,43.3202476021535,-2.86216180738143,,,0,
10023,3280,Lepanto Lanbarketa,,43.2127354944498,-2.88929401342678,,,0,
10024,5542,Iturribengoa,,43.3170705400757,-2.98181703555384,,,0,
10025,3585,Landaida Anbulatorioa,,43.3691723829677,-2.99846319379215,,,0,
10026,4673,Zabalondo Industrialdea,,43.3392273253435,-2.86073666996794,,,0,
10027,3999,Soietxe,,43.3351515680781,-2.80233519500055,,,0,
10028,3332,Lutxana Geltokia / Estación,,43.2881464907454,-2.97566305091578,,,0,
10029,5323,Magdalenabidea Zubietakoerrota,,43.3180581900295,-2.96896617095848,,,0,
10030,3178,Gudari,,43.2201310380621,-2.73604990331546,,,0,
10031,5538,Eleizalde,,43.2974693219758,-2.63772750771051,,,0,
10032,4171,Zugazarte 2 Marítimo,,43.3274985732713,-3.01503032038157,,,0,
10033,3395,El Cantón,,43.1222272864439,-3.12593776684328,,,0,
10034,4555,Zubibarri,,43.2344380223445,-2.53165662052933,,,0,
10035,3298,Atxukarro Industrialdea 7 Poessa,,43.2154879154041,-2.89082308382705,,,0,
10038,4679,Elordui,,43.3655330466825,-2.82452590060303,,,0,
10040,3193,San Juan,,43.2187313765423,-2.73050315471028,,,0,
10042,5516,La Cuesta 59,,43.3481104656028,-3.0901825699513,,,0,
10043,3971,La Olla,,43.2913187401992,-3.12946747720518,,,0,
10044,4138,Los Chopos 40,,43.3443379067722,-3.00048783665181,,,0,
10046,3353,Herriko Plaza Los Fueros 1,,43.2965586665269,-2.98624944267074,,,0,
10047,5145,Apatamonasterio,,43.1295392316807,-2.58446530236767,,,0,
10048,3450,Padura Hípika,,43.1627832493403,-3.02579402717911,,,0,
10049,5161,Torre,,43.1024127312521,-2.58096281946825,,,0,
10050,3626,Milloi Gane,,43.3120864755244,-2.48096165087275,,,0,
10051,4749,La Cadena,,43.3305721849272,-3.13517472614593,,,0,
10052,3823,Kaltzada,,43.1320921329622,-2.74498641558645,,,0,
10053,4828,Aranguren,,43.0967869245961,-2.86961083405766,,,0,
10055,3944,Artola,,43.2452382503405,-2.80515376040493,,,0,
10056,4021,Udaletxea,,43.1936902762254,-2.61144453239456,,,0,
10058,9042,Las VIñas,,43.3282331751837,-3.03361877790935,,,0,
10059,0235,Ernesto Erkoreka Plaza Udaletxea / Ayuntamiento,,43.2644767850476,-2.92289917821144,,,0,
10060,1045,Mikoleta,,43.266322039428,-2.89897978448917,,,0,
10061,5564,Buenavista,,43.3206520433914,-3.03072879731027,,,0,
10062,4198,Algortako Etorbidea 59,,43.3512709219161,-3.01144498308267,,,0,
10063,5224,Arangoiti Zalla,,43.2119111015177,-3.1076951769256,,,0,
10064,4852,Bide Zabala Sukarrieta,,43.3972339026929,-2.69812117774758,,,0,
10065,0814,Basurto Ospitalea / Hospital Basurto,,43.2605317105721,-2.9543964108942,,,0,
10066,3970,El Bentorro Arenao,,43.280384362675,-3.13953872741378,,,0,
10067,5146,Martzaa,,43.1228129640967,-2.58703117448829,,,0,
10068,3931,Labeaga,,43.2239221451138,-2.8203060508672,,,0,
10069,5186,San Andres,,43.1737164495182,-2.54662719580535,,,0,
10070,9023,Geltokia / Estación,,43.3137138989497,-2.67673450205161,,,0,
10071,4520,Urtiaga Industrialdea Larzep,,43.1876362257785,-2.52412056303249,,,0,
10072,9037,Billela Torrontegi,,43.373129016714,-2.86067084691121,,,0,
10073,4522,Urtiaga Industrialdea Larzep,,43.1875285251275,-2.52420631210434,,,0,
10074,4975,Capitán Mendizabal 48,,43.3330135047099,-3.03716158213675,,,0,
10075,4028,Gatika,,43.3626006586777,-2.87417210684422,,,0,
10076,5546,Legazpi,,43.3021387636359,-2.97436745949202,,,0,
10078,5459,Agarregane,,43.3461654384869,-2.67990512673194,,,0,
10079,5044,El Kasko Plaza Gran Via,,43.309508107907,-3.00671532850909,,,0,
10080,5004,Antonio Alzaga 46,,43.3232176017482,-3.03370247013267,,,0,
10081,5436,Galbarriatu,,43.2817101308094,-2.89810352395792,,,0,
10082,5226,Ligueti,,43.2153665808033,-3.13548891593294,,,0,
10083,3403,Arrespalditza / Respaldiza,,43.0767048769037,-3.0440273553161,,,0,
10084,5216,La Herrera - Ijalde,,43.2037728255983,-3.17089190095968,,,0,
10085,4880,Miguel De Unamuno Beilatokia / Tanatorio,,43.3145837665776,-3.02259182087026,,,0,
10086,3641,Hormaztegi,,43.1770658685968,-2.58185363714246,,,0,
10087,4474,Intzuntza Gasolindegia / Gasolinera,,43.2096735906946,-2.78202542037413,,,0,
10088,4939,Funikular Kalea Udaletxea / Ayuntamiento,,43.3053964399823,-3.03715770145633,,,0,
10089,4025,Garai,,43.3581327647896,-2.88095632562041,,,0,
10090,4080,Molinar Plaza,,43.1796649281944,-3.0735431989504,,,0,
10091,1062,Iberdrola,,43.2466093756537,-2.98185180332964,,,0,
10092,5157,Axpe,,43.1158932199434,-2.59848473417638,,,0,
10093,4506,Zubia,,43.3605272787528,-2.49934148026535,,,0,
10095,4771,Santelices,,43.3155866024678,-3.12075156338756,,,0,
10096,4040,Gatika,,43.3627449070106,-2.87433224860023,,,0,
10098,4677,Larrauri,,43.3673127500441,-2.81050628562823,,,0,
10099,5208,Las Pedrajas,,43.2039895339167,-3.15976301485581,,,0,
10100,3901,Gipuzkoa Etorbidea 16 San Antonio,,43.183711622657,-2.49921420228644,,,0,
10101,5239,Mendieta Biribilgunea / Rotonda,,43.2119011523798,-2.88326322121058,,,0,
10102,5530,La Cuesta Udaletxea / Ayuntamiento,,43.3458516962072,-3.08842721495871,,,0,
10103,5439,Galbarriatu,,43.281948377582,-2.89778267153401,,,0,
10104,3611,Etxebizker Mikel Deuna,,43.4161175587513,-2.75097909710912,,,0,
10105,5535,Zubiate,,43.3088450628962,-2.64442920900665,,,0,
10107,1042,Luis Briñas Termibus,,43.2608535573591,-2.94890349999669,,,0,
10108,3551,Gernika 53 San Migel,,43.2185052162223,-2.88691959515141,,,0,
10109,3168,San Antonio Elguezabal,,43.1985131400083,-2.7040674916232,,,0,
10110,4875,Ramón Y Cajal Gasolindegia / Gasolinera,,43.3156386014819,-3.0214650674531,,,0,
10111,4737,Zetokiz,,43.2936649681205,-2.57155653246164,,,0,
10112,5555,Arriagane Industrialdea,,43.2279232042009,-2.74963551643446,,,0,
10114,3909,Zubiaurre,,43.1910880647232,-2.50162757420237,,,0,
10116,4129,Portua / Puerto,,43.4080755963292,-2.94440220118826,,,0,
10117,4715,Iturribaltzaga,,43.3462764396148,-2.83930737900176,,,0,
10118,3189,Boroa Ordainlekua / Peaje,,43.2309537439074,-2.75195050475134,,,0,
10119,4176,Algortako Etorb. 32 San Ignacio,,43.3435228008102,-3.00808164504419,,,0,
10120,4071,Molinar Plaza,,43.1798362324485,-3.07321117962161,,,0,
10121,4931,Funikularra Geltokia / Estación,,43.3014689475424,-3.04171721049185,,,0,
10122,3754,Plaza Auzoa,,43.0987704686397,-2.74962892295862,,,0,
10123,4530,Goitondogoikoa,,43.1984798922179,-2.52891643650022,,,0,
10124,3132,Udaletxea / Ayuntamiento,,43.3214345526698,-3.07314319330038,,,0,
10125,9008,Bolibar,,43.2497130761358,-2.54921687414408,,,0,
10126,4492,Lastarri,,43.4021353543064,-2.90753195880959,,,0,
10127,9036,Garibai,,43.0648323403707,-2.4898082253281,,,0,
10128,3749,Zubizabal,,43.051440318415,-2.69783209367629,,,0,
10129,5505,Lasao,,43.2453584118362,-2.98690259880191,,,0,
10130,5249,Tabernabarri,,43.3044774400166,-2.88331864892002,,,0,
10131,5127,Brioketenes,,43.369778585485,-2.9422532317564,,,0,
10132,4672,Bolatoki,,43.3349111994447,-2.86573035636237,,,0,
10133,4034,Garai,,43.35791713112,-2.88141347094129,,,0,
10134,3308,Bentalde,,43.4291899198517,-2.8052896867902,,,0,
10135,3544,Artunduaga Kiroldegia / Polideportivo,,43.2331955155748,-2.88164585017545,,,0,
10136,4732,Zetokiz,,43.2937199267981,-2.57180516299606,,,0,
10137,3288,Txako,,43.1850256494215,-2.89642035024771,,,0,
10138,4678,Larrauri,,43.3670603863571,-2.8111793618091,,,0,
10139,5351,Mezo 77 - 79 Bistalai,,43.3150058912241,-2.9699297330333,,,0,
10140,4981,El Calero,,43.3462711631283,-3.06990276908927,,,0,
10141,4217,Bidezabal Metro,,43.3568626340084,-3.01242079726592,,,0,
10142,4794,Zelaieta,,43.0438615079142,-2.66217384313612,,,0,
10143,4089,Zaldu Pilotalekua / Frontón,,43.1767121797991,-3.03186551520479,,,0,
10144,4701,Karmelo Etxegarai,,43.3629615105237,-2.85236367941461,,,0,
10145,4254,Lazkao Kilómetro 11,,43.2291679975492,-3.01546399164445,,,0,
10146,3341,Resurrección María Azkue 34 La Ronda,,43.2900131328991,-2.99556160705817,,,0,
10148,4438,Artazagane Farmazia,,43.3324919206701,-2.98937243376228,,,0,
10149,5033,Iberia,,43.3111921024063,-3.00379304458189,,,0,
10150,3578,Axgane,,43.3587676641433,-2.99838719073724,,,0,
10151,3184,Katia,,43.237373189169,-2.72399147037412,,,0,
10152,4329,Zatika Tres Cruces,,43.3611644616605,-2.52134649471139,,,0,
10154,4918,Ugarte El Juncal,,43.2914431916785,-3.01476787013165,,,0,
10155,4887,Bizkaia Zubia / Puente Bizkaia,,43.3234999011271,-3.01929687768776,,,0,
10156,4717,La Bilbaina Atxabaso,,43.3215803312546,-2.85499308623595,,,0,
10157,4012,Ibarra,,43.3308540895141,-2.80095539299803,,,0,
10159,4607,Usila Zubia / Puente Usila,,43.1841195668092,-2.90024888845439,,,0,
10160,5017,Geltokia / Estación,,43.3119508252915,-3.06085002040325,,,0,
10161,5165,Elexalde,,43.2087111681782,-2.80256251336095,,,0,
10162,3486,Cirilo Sagastagoitia,,43.2861398071982,-2.98256655243833,,,0,
10163,4706,Ereñotzaga,,43.3815817740271,-2.80166640910687,,,0,
10165,4095,San José Zahar - Egoitza / Asilo,,43.1852195320132,-3.06014858106411,,,0,
10166,0470,Zorrotza - Kastrexana 81 Flex,,43.2721892913386,-2.97414589087979,,,0,
10167,4871,Begiratokia / Mirador,,43.3181697301282,-3.01575588522453,,,0,
10168,1002,Egirleta / Santo Domingo,,43.2690827200889,-2.9056582519871,,,0,
10170,5247,Hilerria / Cementerio,,43.2927633115156,-2.89335111607887,,,0,
10171,9006,Megapark,,43.2936781232915,-3.00400189418779,,,0,
10173,5290,Faoeta,,43.2950911602833,-2.95361785667479,,,0,
10174,3788,Telleritxu,,43.1582807204611,-2.88166864488521,,,0,
10175,5008,Catalina Gibaja 23,,43.3105753369259,-3.05653280897269,,,0,
10176,5188,Goierri,,43.1767632408501,-2.53620766529962,,,0,
10177,4949,Elexalde,,43.2736370496033,-2.83276568340446,,,0,
10178,4572,Ororoaga,,43.2934869348457,-2.63418862301231,,,0,
10179,4924,Trapaga Auzoa,,43.2994487118261,-3.01873509394411,,,0,
10180,3833,Landako,,43.1718022307821,-2.63242299601883,,,0,
10181,0905,Maurice Ravel Panera,,43.2654898587225,-2.91667535798429,,,0,
10182,4029,Sertutxa,,43.3594242440804,-2.86819335601653,,,0,
10183,4238,Gallarraga Farmazia,,43.2017305717061,-3.04869229348064,,,0,
10184,3290,Aguirre Martiartu Industrialdea,,43.1946452628987,-2.89931950695378,,,0,
10185,4733,Astudi,,43.2902071247047,-2.58121434845156,,,0,
10186,4293,Elejalde 7,,43.389708804384,-2.63143565295409,,,0,
10187,4493,Andraka,,43.3975792000749,-2.90732377474227,,,0,
10188,3489,Zuloko,,43.2920303128563,-3.00276906392344,,,0,
10189,4578,Ibartxu,,43.280967540357,-2.63043685761954,,,0,
10190,4592,Pulealde,,43.3475161426131,-2.80315852216218,,,0,
10191,5118,Aita Gotzon Metro Urduliz,,43.3781683447388,-2.95695997929506,,,0,
10192,4797,Mekoleta,,43.045278434831,-2.66938547024704,,,0,
10193,4637,Kurtzero Geltokia / Estación,,43.2881681479313,-2.68946003433571,,,0,
10194,4613,Elosu,,43.1719490231948,-2.89952325640379,,,0,

10196,5523,Portua / Puerto,,43.3501605895232,-3.08209123468188,,,0,
10197,3805,Ziarrusta,,43.1526039567967,-2.76979451617472,,,0,
10198,4714,La Bilbaina Atxabaso,,43.3217332365936,-2.8548570571254,,,0,
10199,3212,Susaeta,,43.2723256566264,-2.59665523980236,,,0,
10200,4014,Etxezuri,,43.31767791451,-2.8153117619008,,,0,
10201,3329,Lutxana Geltokia / Estación,,43.2885336610921,-2.97552730487988,,,0,
10202,5549,Arana Seat,,43.2954763776703,-2.68661652365252,,,0,
10203,3174,Gumuzio,,43.2306963766719,-2.76666766772201,,,0,
10204,4182,Algortako Etorb. 31 San Ignacio,,43.3437433877508,-3.0084209605217,,,0,
10205,5430,Larragoiti,,43.2809533332763,-2.85600264210224,,,0,
10206,4920,Babcock,,43.2990442261648,-3.01363078990895,,,0,
10207,4013,Ibarra,,43.3309258679357,-2.80080713762066,,,0,
10208,3531,Argenta,,43.2861754105856,-2.98002737806685,,,0,
10209,5443,Bidekurtze,,43.2959844127797,-2.86539774426228,,,0,
10210,3211,Urebei,,43.2745120934007,-2.59365834928575,,,0,
10211,3857,Longa,,43.3809950442809,-2.60598075660443,,,0,
10212,4323,Elejalde,,43.3622106250856,-2.54552111604446,,,0,
10213,4989,Iparragirre Iberdrola,,43.3402112237283,-3.0525130329262,,,0,
10214,3816,Makaztui,,43.0940145624705,-2.71645370246475,,,0,
10215,3276,Goiri,,43.3417551353751,-2.77503581559878,,,0,
10216,5501,Nuestra Señora De La Guía,,43.2355706656474,-3.01215252760936,,,0,
10217,4957,Murrieta 13 Batzokia,,43.3271890120003,-3.02790025357248,,,0,
10218,4083,Ugarte,,43.1922589539611,-3.04548515720007,,,0,
10219,4857,Plentzia Biribilgunea / Rotonda,,43.4053044072842,-2.94908544881758,,,0,
10220,1059,Deustuko Unibertsitatea Lehendakari Aguirre 2,,43.2716426813297,-2.94281277561362,,,0,
10221,3128,Las Carreras Ambrosio De Los Heros 39,,43.3189939959485,-3.09789205977237,,,0,
10222,4796,Mekoleta,,43.045340305426,-2.67211078710864,,,0,
10224,5349,Mezo 48 Saliturri,,43.3150967553578,-2.97322230115418,,,0,
10225,5086,Mercadillo Udaletxea / Ayuntamiento,,43.2619688038765,-3.15449187522896,,,0,
10226,5423,Izarza Eliza / Iglesia,,43.2972554468195,-2.9258159465275,,,0,
10227,3037,Untzaga Hotel Arrate - Egogain Kalea,,43.1839452999242,-2.4750691798581,,,0,
10228,4325,Zatika Tres Cruces,,43.361035442553,-2.52124260914682,,,0,
10229,3525,San Bartolomé 1,,43.2950829076144,-3.00128986177199,,,0,
10231,0813,Olabeaga Avda. Montevideo,,43.2647387858741,-2.96123588793602,,,0,
10232,1038,Ibarrekolanda,,43.2732998997758,-2.95354863781838,,,0,
10233,4082,Zubiete Txelus,,43.1863462928139,-3.05789770129108,,,0,
10234,4687,Blankone,,43.3405750243461,-2.80918303822518,,,0,
10235,4967,Udaletxea / Ayuntamiento,,43.3281162418401,-3.0331870053199,,,0,
10236,3758,Olabarri,,43.1031139009576,-2.75103063175451,,,0,
10237,5079,Eliza / Iglesia,,43.3803816607852,-2.98375964117033,,,0,
10238,4925,Causo,,43.3000055522052,-3.02650242985456,,,0,
10239,3140,Sanfuentes 73,,43.3262515229164,-3.07388889757306,,,0,
10241,0626,Zabalburu Autonomía 4,,43.257397790082,-2.93514222499053,,,0,
10242,4473,Estaziñoa,,43.2071048890975,-2.77610122123036,,,0,
10243,3457,Irabien Vital Kutxa,,43.1551560265172,-3.02672571731996,,,0,
10244,4553,Plazakola,,43.2970757475576,-2.47602602636363,,,0,
10245,4248,La Cuadra,,43.2231602937007,-3.02477160221005,,,0,
10246,5154,Ugalde,,43.1110047061486,-2.59120378274652,,,0,
10247,1023,Egirletagoikoa Gasolindegia / Gasolinera,,43.2738897603866,-2.90348989072093,,,0,
10248,5014,Etxaba,,43.3075181835151,-3.04654239120439,,,0,
10250,9003,Oruezabaleta,,43.1753627981003,-2.6067683340677,,,0,
10251,4011,Garellano,,43.3376320866871,-2.80481910965199,,,0,
10252,3751,Barazar,,43.0657891106051,-2.71146391983238,,,0,
10253,4203,Gorbeia Mendia,,43.3294172679062,-3.00635685248753,,,0,
10254,4529,Apoita,,43.2068855495743,-2.55232687522681,,,0,
10255,4606,Torre De Ugao 3,,43.1815954432058,-2.90224517406616,,,0,
10256,5340,San Ignazio 8 - 10,,43.3030752790568,-2.97452734893473,,,0,
10257,9005,Megapark,,43.2937141347274,-3.00419913754586,,,0,
10258,3772,Zubibarria,,43.1467936287351,-2.84300167921325,,,0,
10259,0224,Ernesto Erkoreka Plaza Udaletxea / Ayuntamiento,,43.2641253950833,-2.92259158192362,,,0,
10260,4778,Iturrizar,,43.3231030510864,-3.12298512268979,,,0,
10261,4793,Ospital Kalea,,43.0401412793218,-2.65279033199735,,,0,
10262,4115,Orabille,,43.4171082946227,-2.91727980995764,,,0,
10263,4039,Urondo,,43.3742324388852,-2.88954060470991,,,0,
10264,3362,Bide - Onera Los Fueros,,43.2954333666802,-2.98791396401304,,,0,
10265,4697,La Bilbaina Auzo - Etxea / Centro Cívico,,43.3265990960793,-2.85056537895976,,,0,
10266,5374,Altzaga Ikastola,,43.2985864248113,-2.97162227487338,,,0,
10267,4042,Igartua,,43.3770193217972,-2.88505439691665,,,0,
10268,5021,Bañales,,43.3130295149168,-3.06441489006724,,,0,
10269,5173,Elexalde,,43.1628247142694,-2.77901883008227,,,0,
10270,5455,Teknologia - Parkea Arteaga,,43.2854492393781,-2.85807499025187,,,0,
10271,4536,Iruzubieta,,43.2530407407546,-2.52706681391652,,,0,
10274,4349,Sarrikola,,43.2546992330912,-2.79835984601288,,,0,
10276,3649,Eitua Industrialdea Pastor Gorbea,,43.1673079910112,-2.59271184396918,,,0,
10277,5338,Altzaga - Erandiogoikoa Arriaga,,43.3034656514477,-2.96688040996766,,,0,
10278,3536,San Telmo,,43.403724501392,-2.95400942049398,,,0,
10279,3587,Lamera,,43.4189332262155,-2.7224594680636,,,0,
10280,3563,Agirre Lehendakaria 73 Ariz Dorretxea,,43.2361351539816,-2.88134445527192,,,0,
10281,5121,Mendi Ondo Eskolak / Escuelas,,43.3675614183204,-2.93847852809044,,,0,
10282,1008,Zunzunegi,,43.2620440187039,-2.94899984168361,,,0,
10284,1040,Ibarsusi,,43.25053058221,-2.90193801940105,,,0,
10285,4653,Oka,,43.2662879854611,-2.68620909692198,,,0,
10286,5084,Castaño Nuevo,,43.2786582406423,-3.16461530370482,,,0,
10287,4546,Markina Plaza,,43.2671257118966,-2.49732876110747,,,0,
10288,5418,Basozabal,,43.2987890868113,-2.92331754323058,,,0,
10289,5451,Ospitale Psikiatrikoa / Hospital Psiquiátrico,,43.2898250921242,-2.85424832358762,,,0,
10290,4481,Larrabeiti,,43.203857354295,-2.77314652102906,,,0,
10291,4518,Urtiaga Industrialdea Tva,,43.1853208960363,-2.51529936362254,,,0,
10292,4440,Negurigane,,43.334982162683,-2.99824275007809,,,0,
10293,4185,Zugazarte Triángulo,,43.3360956913557,-3.01002125698272,,,0,
10294,3539,Ziarreta Cantabrico,,43.4040825858871,-2.96857476716835,,,0,
10296,4635,Ariatza,,43.2709316697627,-2.68531758237952,,,0,
10297,5437,Bilbobarri,,43.2874037405699,-2.89132676602853,,,0,
10298,4092,Isuskitza Hipika,,43.1695992306102,-3.02862636378651,,,0,
10299,4640,Oka,,43.2665395579175,-2.68600572281402,,,0,
10300,5342,Obieta 33,,43.304137711838,-2.97139023775553,,,0,
10301,4174,Algortako Etorb. 12 Regoyos,,43.3392374959813,-3.00861414841782,,,0,
10302,5203,Otxaran,,43.2199971479686,-3.16802931640015,,,0,
10304,4111,Andra Mari 5,,43.4131222353572,-2.93534362471005,,,0,
10305,3638,Parrokia,,43.1764785769213,-2.5764437914627,,,0,
10306,3270,Olatxu,,43.3278967902221,-2.76149463058738,,,0,
10307,3556,Kareaga Goikoa 11 El Calero,,43.2389564359597,-2.89828158034814,,,0,
10309,3612,Etxebizker Mikel Deuna,,43.4160228489987,-2.75090413594547,,,0,
10310,4341,Goikolexea,,43.2670912397311,-2.78450553306519,,,0,
10311,5092,La Jara,,43.2736379694961,-3.1482854492757,,,0,
10313,1001,Alameda Recalde 29,,43.264249806116,-2.93434624479242,,,0,
10314,3278,Goiri,,43.3419391201688,-2.77472670353259,,,0,
10315,3634,Uribe,,43.1665699390118,-2.55894508627671,,,0,
10316,5137,Avda. Encartaciones,,43.1895327135887,-3.20044097953346,,,0,
10317,4756,La Cadena,,43.3305269433951,-3.13535965085849,,,0,
10318,3216,Matxinena,,43.2777951476063,-2.62409054004922,,,0,
10319,3194,San Juan,,43.2188670836974,-2.73077330812829,,,0,
10320,5142,Atxondo Geltokia / Estación,,43.1315133902271,-2.58506668323028,,,0,
10321,3650,San Cristobal,,43.3678828468901,-2.69426951409181,,,0,
10322,0207,Maurice Ravel Begiratokia / Mirador,,43.2695820125452,-2.92241202639513,,,0,
10323,4178,Telletxe 2 Geltokia / Estación,,43.3513026204518,-3.00944480282172,,,0,
10324,3595,Dondiz,,43.3933960427065,-2.77080643614292,,,0,
10325,4795,Zelaieta,,43.043927220152,-2.66308201137009,,,0,
10326,1021,Egirletabekoa Baserriak / Caserios,,43.2778945275136,-2.90079672636496,,,0,
10327,3877,Etxebarria,,43.2543584191713,-2.47752532884368,,,0,
10328,5462,Elejalde,,43.3394560922172,-2.65483498666784,,,0,
10329,3591,Harrizurieta,,43.388237467786,-2.77129887566582,,,0,
10330,3786,Olatxu,,43.1543742517169,-2.87474306806579,,,0,
10331,4434,Artatzagane Farmazia,,43.332472973725,-2.98897770430111,,,0,
10332,0111,Sarriko Lehendakari Aguirre 88,,43.2748231102398,-2.95866614808177,,,0,
10333,4648,Etxe Barriak,,43.2917411085507,-2.70233667457107,,,0,
10334,4367,Aurrekoetxe,,43.3492543186528,-2.89945744090687,,,0,
10335,0837,San Ignacio Lehendakari Aguirre 147,,43.277669878067,-2.96081666418637,,,0,
10336,5049,El Kasko Plaza Las Llanas,,43.3088912472373,-3.00744893302903,,,0,
10339,4562,Udaletxea,,43.3793590613748,-2.86734739335169,,,0,
10340,4084,Zubiete 56 Isasi,,43.1881488195215,-3.05471195097416,,,0,
10341,4015,Etxezuri,,43.3175155219548,-2.81511986877819,,,0,
10342,4075,Artekona,,43.1502031828467,-3.10574344564944,,,0,
10343,3125,El Casal,,43.3221103853441,-3.07237440603861,,,0,
10344,3337,Kareaga,,43.2865914737557,-3.00411248796922,,,0,
10345,3630,Aierdi,,43.3170458122046,-2.47850232021842,,,0,
10346,4101,Albitxu,,43.1438153469928,-3.10944637306732,,,0,
10347,4708,Lauaxeta,,43.3568989543412,-2.85042872749052,,,0,
10348,4883,Doctor Areilza Parkea,,43.3250394262222,-3.02076879861812,,,0,
10349,4102,Albitxu,,43.143743437525,-3.10931097355328,,,0,
10350,5082,Urgitxieta,,43.3755137401887,-2.99003557974555,,,0,
10351,0231,San Isidro,,43.2607054190493,-2.91259146729754,,,0,
10352,4208,Mayor Kalea 28 Metro,,43.3267128718062,-3.01161477746485,,,0,
10353,4515,Goitondobekoa Hambre,,43.1942510151481,-2.52107216897101,,,0,
10354,5337,Altzaga - Erandiogoikoa Artetxe,,43.3029819329505,-2.96091815799064,,,0,
10355,0265,Kastrexana,,43.2569262130695,-2.97051396590272,,,0,
10356,4475,Mendieta,,43.209944241012,-2.79202072286173,,,0,
10357,0209,Maurice Ravel Teléfonica,,43.2679044390243,-2.91852041722808,,,0,
10358,4605,Torre De Ugao Geltokia / Estación,,43.1794659442686,-2.90240606961108,,,0,
10359,4133,Aitzondo Ospitalea / Hospital,,43.4189436205954,-2.94372495239859,,,0,
10360,3639,Vera Cruz Komentua / Convento,,43.1821453249263,-2.57429331556489,,,0,
10362,4583,Zelaia,,43.346626058288,-2.48753725695878,,,0,
10363,4773,Nesilla,,43.3056991315838,-3.12115022377199,,,0,
10364,4157,Azkorri,,43.3772761941288,-3.00881988203533,,,0,
10365,3930,Aperribai,,43.2404538697748,-2.87382281635747,,,0,
10366,3197,Karmen 3,,43.2206189719893,-2.7328932547011,,,0,
10367,3968,Altzadi Plaza,,43.2330427411224,-2.84424450593795,,,0,
10368,4361,Iturrikoetxe,,43.2610903806965,-2.79718046103865,,,0,
10369,4172,Zugazarte 38 Reparadoras,,43.3317941383638,-3.01173774145655,,,0,
10370,4299,Ibinaga Los Angeles,,43.397104106538,-2.63365912689252,,,0,
10371,3859,Kukullaga,,43.2465464850356,-2.88776646358493,,,0,
10372,3287,Txako,,43.1843151694932,-2.8974182990261,,,0,
10373,5213,Mimetiz Udaletxea / Ayuntamiento,,43.2142586300918,-3.13388805537141,,,0,
10375,1033,Gran Vía 46 Sota,,43.2635129266322,-2.93702079483261,,,0,
10376,4356,Andra Mari Elkartegi,,43.2583964001164,-2.79629001146243,,,0,
10378,3810,Arostegieta,,43.1295988099807,-2.74548867891176,,,0,
10379,4018,Aiartza - Sarria,,43.1840892788478,-2.60439890092269,,,0,
10381,0301,Zabalbide Ur Depositua / Depósito Aguas,,43.2580387824649,-2.9109689939672,,,0,
10383,3756,Zulaibar,,43.1070116357564,-2.75661896358548,,,0,
10384,4488,Zubitxu Hilerria / Cementerio,,43.4086329082096,-2.90311270102702,,,0,
10385,5364,La Avanzada Ertzaintza,,43.3091628325228,-2.95874510750081,,,0,
10386,3303,Otsategi,,43.4131867307083,-2.8136735886232,,,0,
10387,4091,Etxebarrria,,43.178475517968,-3.03718314361866,,,0,
10388,3953,Olabarrieta Poblado Firestone,,43.2372632717906,-2.87119373845931,,,0,
10389,4980,Landeta San Juan,,43.3377556866537,-3.04624411443724,,,0,
10390,5316,Magdalenabidea Zubietakoerrota,,43.3177428434402,-2.96828804841695,,,0,
10391,5043,Kueto Gran Vía,,43.3082341372661,-3.00194205316023,,,0,
10392,5010,Urioste,,43.3093121055981,-3.04131923647711,,,0,
10394,3364,Resurrección María Azkue 12,,43.2909493473602,-2.99100905317745,,,0,
10395,4496,Agarrabesko,,43.4206076018542,-2.91268568038714,,,0,
10397,3355,Beurko Av. Miranda 2,,43.298598955052,-2.99368063230489,,,0,
10398,4979,Parkea / Parque Arkupeak / Soportales,,43.3283236463631,-3.03213868071361,,,0,
10399,4805,Kamiñazpi,,43.3213744087371,-2.43355732585515,,,0,
10400,5053,Rivas Gran Via,,43.3078511914938,-2.9936449021264,,,0,
10401,4132,Mungia Bidea,,43.4045543678883,-2.94340507037318,,,0,
10403,4897,La Florida,,43.3177986851015,-3.02633701433193,,,0,
10404,3596,Zubiaur´Tar Kepa Udal Azoka,,43.4196037389881,-2.72794857806469,,,0,
10405,3196,Tantorta,,43.225498817131,-2.74371892947781,,,0,
10406,3564,Mercabilbao,,43.2312272970008,-2.88539340638821,,,0,
10407,3785,Olatzar,,43.152496510213,-2.8704914006037,,,0,
10409,4922,Babcock El Juncal,,43.2978466250039,-3.01351969010401,,,0,
10410,9009,Bolibar,,43.2496007150778,-2.54926697734054,,,0,
10411,3520,Max Center N - 634,,43.2876628870005,-3.00697227107711,,,0,
10412,1026,Enrique Ibarreta Santutxu,,43.2546883884304,-2.91013613622606,,,0,
10413,3818,Bernaola,,43.1225680121955,-2.73843697866626,,,0,
10414,4914,Primero De Mayo 32,,43.3014399931749,-3.03366997213035,,,0,
10415,5481,Maspe 4,,43.1738935706688,-2.63889029454213,,,0,
10417,3127,Las Carreras Ambrosio De Los Heros 42,,43.3191201549161,-3.09778126804093,,,0,
10418,4716,Iturribaltzaga,,43.3456354581864,-2.83813090833523,,,0,
10420,9014,Triano,,43.2955671653463,-3.0685637909031,,,0,
10421,4750,La Rigada,,43.33579397131,-3.14327864598379,,,0,
10422,3632,Bekokale,,43.3118944125237,-2.46374645772468,,,0,
10423,4625,Andra Mari,,43.3000461805297,-2.75286336415228,,,0,
10424,5558,Teknologia - Parkea Euskaltel,,43.2945386532267,-2.86119730144791,,,0,
10426,2195,Zabalburu Juan De Garay,,43.2563341321664,-2.93322143094143,,,0,
10427,4073,Las Llanas Plaza,,43.1613802236213,-3.1035237055743,,,0,
10428,5177,Igorreko Industrialdea,,43.1583378623879,-2.77316775344681,,,0,
10429,4543,Egi,,43.3011597935659,-2.47318609924291,,,0,
10430,5288,Faoeta,,43.2947578185536,-2.95319896573821,,,0,
10431,3906,Zeharkalea 1,,43.1864107800434,-2.50487747188947,,,0,
10433,1022,Egirletabekoa Baserriak / Caserios,,43.277858786403,-2.90111721778501,,,0,
10434,3949,Zuazo,,43.2291376800938,-2.85331807252001,,,0,
10435,4755,La Rigada,,43.3358741912075,-3.14393264709577,,,0,
10436,5271,Mendikoi Hotel Laia,,43.2933816389358,-2.87288639629244,,,0,
10437,4309,Ibinaga Los Angeles,,43.3970910153784,-2.63378886484332,,,0,
10438,0608,Gran Via 63 Renault,,43.2641092101371,-2.94071665613633,,,0,
10439,0603,San José Plaza Elcano 5,,43.2639983898337,-2.93560331451611,,,0,
10440,5327,Altzaga - Erandiogoikoa Basabe,,43.3014131887136,-2.96898117281888,,,0,
10441,4769,Kiroldegia / Polideportivo,,43.3224148024895,-3.11814288975205,,,0,
10442,0113,Sarrikoko Biribilgunea / Rotonda De Sarriko,,43.2733636584546,-2.95537246046852,,,0,
10443,4117,Elexalde Udaletxea / Ayuntamiento,,43.4150207435815,-2.93301927887507,,,0,
10444,3884,Gurutziaga,,43.127737966158,-2.53988659265483,,,0,
10445,5514,Valle,,43.3421697428118,-3.08326078269693,,,0,
10446,3117,Astola,,43.1612966778958,-2.61186526418651,,,0,
10447,4350,Sarrikola,,43.2546319327954,-2.79849312051177,,,0,
10448,5058,Vía Galindo 12 Inem,,43.3069236740993,-3.00841673923319,,,0,
10449,4317,Apraiz,,43.3875434079101,-2.6314907514717,,,0,
10450,4268,Lorategieta,,43.3193368162478,-2.66883616575318,,,0,
10451,4339,Larrabetzu,,43.2617549026853,-2.79620488769129,,,0,
10452,3646,Eitua Industrialdea Pastor Gorbea,,43.1671372451702,-2.59280893445305,,,0,
10454,3167,Euba,,43.1955852717495,-2.69672158741644,,,0,
10455,4671,Beasko - Maurolas,,43.3288654896276,-2.87029528962229,,,0,
10456,3963,Anbulatorioa,,43.2339617050509,-2.84459931536613,,,0,
10458,4968,Igerilekuak / Piscinas,,43.3274604441254,-3.02700712167996,,,0,
10459,4663,Trobika Auzoa,,43.3587068089011,-2.83530087109744,,,0,
10460,4364,Modesene Hilerria / Cementerio,,43.355459720677,-2.91181180627664,,,0,
10461,3283,Aixarte Bekoa Ikastola,,43.2043823953826,-2.89268206116448,,,0,
10462,5424,Asua Plaza Sangroniz,,43.300798952933,-2.94151372075501,,,0,
10463,5076,Atxabiribil Bidegurutzea / Cruce,,43.3854917855666,-2.98432731083232,,,0,
10464,3822,Kaltzada,,43.1328949279049,-2.74559784029651,,,0,
10465,4038,Ugarte,,43.3663590045568,-2.87736086105569,,,0,
10466,3820,Santuru,,43.1482179843981,-2.76288089727341,,,0,
10467,3950,Olabarrieta Poblado Firestone,,43.237334920533,-2.87084873425373,,,0,
10468,4239,Sodupe Herriko Enparantza,,43.2001188244127,-3.04844003734342,,,0,
10469,4893,Errepelega / Repelega Anbulatorioa,,43.3143696778555,-3.01656892139045,,,0,
10470,4352,Gaztelu,,43.2718486493045,-2.78377758018029,,,0,
10471,5197,Zubia / Puente Geltokia / Estación,,43.2237682116246,-3.16933246273374,,,0,
10472,4187,Areeta 9 Eliza / Iglesia,,43.3267420945488,-3.01573318549793,,,0,
10473,5315,Ibañez Betolatza,,43.2954836127664,-2.96885499025073,,,0,
10474,4491,Olalde,,43.4165581367809,-2.90468723296974,,,0,
10475,4730,Angiz,,43.3038144390688,-2.54622811676296,,,0,
10476,5369,Asua La Avanzada 9,,43.3026788028168,-2.94638695288651,,,0,
10477,5440,Vizcaya Ikastetxea,,43.2844454254142,-2.89585321816871,,,0,
10478,3114,Zelaieta,,43.1504336681418,-2.61061017716005,,,0,
10479,4765,Pobeña,,43.345206206847,-3.12578295365228,,,0,
10480,4690,Blankone,,43.3407283416088,-2.80932690175197,,,0,
10481,3333,Los Angeles Auzoa,,43.2821323673344,-2.98026287992188,,,0,
10482,0624,La Casilla Autonomia 50,,43.2577891162959,-2.94287896569035,,,0,
10483,1044,Lutxana Ribera De Elorrieta,,43.2883610685842,-2.96929017463386,,,0,
10484,5438,Bilbobarri,,43.2874046151181,-2.89225123597467,,,0,
10485,9000,Carlos VII Los Angeles Kafetegia,,43.3170790905093,-3.02273567647231,,,0,
10486,0902,Plaza Levante Lehendakari Aguirre 179,,43.2818037771531,-2.96311869248077,,,0,
10487,4195,Salsidu 39 Getxoi,,43.3535675698232,-3.00430062199498,,,0,
10488,1048,Orueta,,43.2653257795638,-2.90273959042208,,,0,
10489,3115,Zubibitarte,,43.1685286830901,-2.61220072500158,,,0,
10490,3972,La Olla,,43.2905438547834,-3.12989727578799,,,0,
10491,4718,La Bilbaina Urbide,,43.3291854515478,-2.85213788412508,,,0,
10492,4399,Ondiz,,43.3274630267674,-2.99123715946551,,,0,
10493,5277,Jose Luis Goioaga Axpeko Dartsena,,43.3089828801401,-2.97727461649411,,,0,
10494,3396,Plaza Garay Junto Al Ayuntamiento,,43.1220825247799,-3.13056457219688,,,0,
10495,3637,Iturritza,,43.1698223054962,-2.57478957056374,,,0,
10496,3629,Atxurra,,43.3244280994694,-2.4932026630252,,,0,
10497,4913,Primero De Mayo Udaletxea / Ayuntamiento,,43.3045590953544,-3.03689826663817,,,0,
10498,4886,Doctor Areilza Parkea,,43.3250754924617,-3.02099945487172,,,0,
10499,3131,Las Postas,,43.3215455822715,-3.06833338342145,,,0,
10500,5151,Arrazola Elizondo,,43.1001679971506,-2.5803023756392,,,0,
10501,4442,Luis Bilbao Libano,,43.3229781237441,-2.9858975315845,,,0,
10502,3853,Biax,,43.3820362937705,-2.57659412506291,,,0,
10503,4523,Mallabarrena,,43.1875685379,-2.52950503095,,,0,
10504,4365,Elizalde,,43.3523498987905,-2.90779378075632,,,0,
10505,4631,Zugarreta,,43.3130753683684,-2.74672080267841,,,0,
10506,5169,Bolibar Egoitza,,43.1192553437707,-2.76811295178793,,,0,
10507,3738,Ugarte,,43.1280463328877,-2.77827154482227,,,0,
10508,3923,Erletxeta Jatetxea,,43.2364861967837,-2.80535431876542,,,0,
10509,4426,Ehu Oteiza Plaza,,43.330953058963,-2.97014352831327,,,0,
10510,5525,Digipen Cabot,,43.3505980275051,-3.07664474254957,,,0,
10511,4266,Saraspe Plaza,,43.3117435620561,-2.67889303924613,,,0,
10512,5299,Erandiogoikoa,,43.3081076680992,-2.95445974958288,,,0,
10513,4873,La Florida,,43.318041789052,-3.02642344668291,,,0,
10514,5090,Mercadillo 26,,43.264365762206,-3.15321648627188,,,0,
10515,4453,Artea,,43.3420595074659,-2.99244387297475,,,0,
10516,4043,Igartua,,43.3768397151033,-2.88553616727408,,,0,
10517,5285,Ribera De Erandio,,43.2965834832339,-2.97409388919669,,,0,
10518,3886,San Agustín,,43.1308648913366,-2.55867404480536,,,0,
10519,4393,Santimami Eroski,,43.3191912982911,-2.97389744566435,,,0,
10520,4542,Egi,,43.3039909532239,-2.47203965798182,,,0,
10521,4002,Gamiz,,43.326831208924,-2.8183229463374,,,0,
10522,4786,Autonomía,,43.3193391440102,-3.12297753088097,,,0,
10523,3537,San Telmo,,43.4041223454623,-2.9536312117774,,,0,
10524,5166,Gane,,43.2122808754212,-2.81019609569574,,,0,
10526,5125,Mendi Ondo Gasolindegia / Gasolinera,,43.3660339833838,-2.92885328168523,,,0,
10527,4401,Donibane / San Juan Kontserbatorioa,,43.3239414048055,-2.9842939313328,,,0,
10528,4881,Errepelega / Repelega,,43.3139014443211,-3.01653179925676,,,0,
10529,5541,Lexartza,,43.314932464421,-2.65329730461036,,,0,
10530,4766,Geltokia / Estación,,43.3219427950947,-3.11286938026523,,,0,
10531,3192,Ategorri,,43.226872490918,-2.73093498114216,,,0,
10533,4215,Bidezabal Metro,,43.3568401574773,-3.01209624190529,,,0,
10535,4731,Aulestia Plaza,,43.2971618802986,-2.56286276489091,,,0,
10536,3369,San Ignacio Vicente Alexandre,,43.2837726050441,-2.99043105557415,,,0,
10538,4664,Billela,,43.3706746408071,-2.85650448536126,,,0,
10539,4269,Lorategieta,,43.3191549763365,-2.66823285143069,,,0,
10540,5184,Avenida Bilbao,,43.1698551353693,-2.54932542084948,,,0,
10541,5513,Portua / Puerto,,43.3503962684782,-3.08204910606251,,,0,
10542,5519,La Arena / Ondarra,,43.3487588846625,-3.11235085969376,,,0,
10543,3532,Goierri,,43.395624271555,-2.97405568890416,,,0,
10544,5297,Altzaga - Erandiogoikoa Irubideta,,43.304472652282,-2.9622771729111,,,0,
10545,4358,Iturrikoetxe,,43.2608381420441,-2.79711969370593,,,0,
10546,4142,Ollaretxe 33 El Redentor,,43.3560616780571,-3.00721307965074,,,0,
10547,3156,Particular De San Pedro,,43.2240948320621,-2.73923050013749,,,0,
10548,4188,Bizkaia Zubia / Puente Bizkaia,,43.323819230299,-3.01557715057304,,,0,
10549,5253,Tabernabarri,,43.3048556328226,-2.88331792559923,,,0,
10550,4007,Duene,,43.3233703879345,-2.81634768080727,,,0,
10551,3338,Kareaga,,43.2863843657455,-3.00414945226334,,,0,
10552,4740,Bengoetxe,,43.3223016341306,-2.54190955157868,,,0,
10553,4279,Lariz,,43.3400545365789,-2.52330775084792,,,0,
10554,5305,Saratseta,,43.2989758582423,-2.96389697726173,,,0,
10555,4202,Ibaizabal Txikia Plaza,,43.3505690143747,-3.0028815414057,,,0,
10556,5171,Urkizu,,43.1836710626299,-2.77446424650412,,,0,
10557,5024,Nocedal,,43.3190456497556,-3.06232456579154,,,0,
10558,4079,Sandamendi,,43.1779410540715,-3.07945947255927,,,0,
10559,4470,Bolunburu,,43.2124239464544,-2.75701188437924,,,0,
10560,4801,Kamiñazpi,,43.3213934476976,-2.43104353566815,,,0,
10561,3203,Oleta,,43.3436908663227,-2.50539551489331,,,0,
10562,4702,Karmelo Etxegarai,,43.3629972893561,-2.85217846896584,,,0,
10564,3169,Ibarguren,,43.2026213571228,-2.71188859307286,,,0,
10565,4948,Uzabal Athletic,,43.2758301464709,-2.84280800933989,,,0,
10566,3577,Lantzarte,,43.3609692442405,-2.99709377774969,,,0,
10567,4933,Galindo,,43.3049958935239,-3.01652950911593,,,0,
10568,3958,Kortederra,,43.2311164987673,-2.77879615044869,,,0,
10569,3849,Bedarona,,43.3774939359947,-2.5706633382915,,,0,
10570,3592,Sollube Gane,,43.405030787169,-2.76035020328575,,,0,
10571,0539,Zumalakarregi Panera,,43.264734932331,-2.91858625305522,,,0,
10572,5036,Chavarri 111 Arboleda,,43.3122904735528,-3.00760348961889,,,0,
10573,3147,Los Heros,,43.3293407692708,-3.07283172912104,,,0,
10574,3742,Igertza,,43.1366642522647,-2.79780328620721,,,0,
10575,4742,Mendikoetxe,,43.3148595839181,-2.54084326199991,,,0,
10576,3163,Euba,,43.195568589201,-2.69722259655272,,,0,
10577,4579,Elexalde,,43.345789227815,-2.48566274170644,,,0,
10578,3540,Azalakopozo Bideondo,,43.4014991691128,-2.97188450509316,,,0,
10579,3783,Zautuola,,43.1477014630488,-2.85548188272374,,,0,
10580,4932,Funikular Kalea,,43.3036130582409,-3.03857463822168,,,0,
10581,4870,General Castaños 19,,43.320167202015,-3.01937500021988,,,0,
10582,3648,Eitua Industrialdea Estampados,,43.1671558371628,-2.58505100808094,,,0,
10583,4477,Zubi Ziku,,43.2061853771382,-2.771032898796,,,0,
10584,5403,Aireportua / Aeropuerto Irteerak / Salidas,,43.3053444890277,-2.90556014988436,,,0,
10585,0401,Zumalakarregi Etxebarria Parkea,,43.2607161335016,-2.91485849791907,,,0,
10586,4096,Sandamendi Pontón,,43.1789096739378,-3.08501003134821,,,0,
10587,4681,Zabalondo Industrialdea,,43.3394435241159,-2.8608101966926,,,0,
10589,4191,Av. Del Angel 18,,43.3586091300234,-3.01619370310775,,,0,
10590,5269,Geldo,,43.3000526494097,-2.87170113674843,,,0,
10591,5149,Santiago,,43.1089641994933,-2.58475261195236,,,0,
10592,4272,Errenteria,,43.3180478471134,-2.67459009619924,,,0,
10593,4482,Lastarri,,43.4021891108811,-2.90719843965466,,,0,
10594,9025,Gallarta,,43.3176154226263,-3.07511191835272,,,0,
10595,5309,Erandiondo,,43.3031598810006,-2.95507880678151,,,0,
10596,3394,Garay 25 Gasolinera,,43.1235191721746,-3.12207539279926,,,0,
10597,4006,Bekoetxebarri,,43.3138026746929,-2.81324451009321,,,0,
10598,3765,Telleritxu,,43.1581817894847,-2.88178691847668,,,0,
10599,5148,Artzia,,43.1118054825388,-2.58606070519315,,,0,
10600,9032,Mijoa Industrialdea,,43.3081963196611,-2.39753818129671,,,0,
10601,3294,Severo Ochoa Kiroldegia / Polideportivo,,43.2099314704471,-2.88659406048298,,,0,
10602,5457,Elejalde,,43.3353051471059,-2.67638487079005,,,0,
10603,3123,Lebario,,43.1658194469344,-2.60471364539025,,,0,
10604,5425,Berreteaga,,43.2979981934197,-2.91910837927883,,,0,
10605,4627,Aretxabalegana Morga Gane,,43.2838399855812,-2.7577735381231,,,0,
10606,0627,Autonomía 20,,43.2575253936485,-2.93791414782323,,,0,
10607,5296,Magdalenabidea Ikatza,,43.3243668787738,-2.95818313151434,,,0,
10608,4161,Zientoetxe 9 Karmelitak / Carmelitas,,43.3664787990614,-3.01806046916391,,,0,
10609,4586,Emerando,,43.3803871352787,-2.79079303231588,,,0,
10610,3844,Altxikerre,,43.3807939724787,-2.58280004638673,,,0,
10611,4580,Zelaia,,43.346633458748,-2.48717938584327,,,0,
10612,5504,Loibe,,43.243531001361,-2.99178069612559,,,0,
10613,5218,Ibarra La Madalena,,43.204703245488,-3.14439003694886,,,0,
10614,5019,San Antón,,43.3083148658299,-3.03416316462444,,,0,
10615,3139,El Bao,,43.3211954045605,-3.08075243925186,,,0,
10616,4906,San Juan De Dios Ospitalea / Hospital,,43.3248037813956,-3.02353298012917,,,0,
10617,4722,"Herri Bide, 11",,43.3550347260625,-2.84354760552747,,,0,
10618,4419,Iturriondo Metro Leioa,,43.3186025283208,-2.99134967285361,,,0,
10619,4987,Sabino Arana,,43.3304388081938,-3.0352357543739,,,0,
10620,0267,Kastrexana Industrialdea,,43.2613297668093,-2.97155912816325,,,0,
10621,3804,Artzubi,,43.1469860302888,-2.75938686977176,,,0,
10622,4045,Herriko Enparantza 28,,43.3497610193785,-2.65167200982062,,,0,
10625,4265,Carlos Gangoiti Villa Argentina,,43.3184564696399,-2.67895363871753,,,0,
10626,3314,Goikolea,,43.4040149893666,-2.81142339090164,,,0,
10627,9004,San Bartolomé 1,,43.2949478382457,-3.00128985891725,,,0,
10628,3937,Uraska,,43.2289624591546,-2.81882569625975,,,0,
10629,3610,Itxurriandia Mikel Deuna,,43.4181862352333,-2.74582198173731,,,0,
10630,4638,Ariatza,,43.2708782525736,-2.68553967052134,,,0,
10631,5336,Altzaga - Erandiogoikoa Uribarri,,43.303791960656,-2.95980057750303,,,0,
10632,4644,Elexalde,,43.2922777602901,-2.70795159068221,,,0,
10633,3834,Natxitua,,43.3809973481429,-2.61381007728941,,,0,
10634,3848,Bedarona,,43.3774854414202,-2.57079918771805,,,0,
10635,4234,Lambarri,,43.2064113584891,-3.08331189041123,,,0,
10636,4798,Korostondo,,43.0507558336773,-2.66095712156007,,,0,
10637,9017,Oruezabaleta,,43.1750843741295,-2.60697928269366,,,0,
10638,4784,La Arena / Ondarra,,43.346870049419,-3.11475223650034,,,0,
10639,5329,Altzaga - Erandigoikoa Artetxe,,43.3042206792262,-2.96275325454818,,,0,
10640,4490,Goiko Errota,,43.4247308242813,-2.90087527453379,,,0,
10641,5456,Teknologia - Parkea Arteaga,,43.285513156427,-2.85878974408101,,,0,
10642,3955,Txomin Egileor Mercadillo,,43.229587137861,-2.85988069163209,,,0,
10643,4760,Autonomía,,43.3187803960383,-3.12340804595249,,,0,
10645,5255,Mungialde Etorbidea 1,,43.2917773933747,-2.88871782299199,,,0,
10646,3347,Obispo Olaetxea 18,,43.2902535485632,-2.97553894218718,,,0,
10647,1055,Ribera De Elorrieta,,43.2851998559972,-2.96718404575434,,,0,
10648,4240,Padura,,43.1950765125402,-3.04778866450283,,,0,
10649,5180,Garbe,,43.1605029893346,-2.78453792971743,,,0,
10650,4252,Iorgi 42,,43.2057836628821,-3.04641807331852,,,0,
10651,3938,Udaletxea / Ayuntamiento,,43.2307862256469,-2.84030961712729,,,0,
10652,4106,Las Llanas Ermita,,43.1633712950142,-3.10240887731874,,,0,
10653,3509,Landeta Goikoa,,43.2932903929508,-2.98918424176295,,,0,
10654,3187,Gumuzio,,43.2308857028621,-2.76677901094936,,,0,
10655,3803,Artzubi,,43.1469682301625,-2.75948655359729,,,0,
10656,4889,Campanzar,,43.3227957239366,-3.02844819118467,,,0,
10657,5447,Teknologia - Parkea Itp,,43.2912300765664,-2.85803677170835,,,0,
10658,3561,Urbi 47,,43.2372431087088,-2.87742945807073,,,0,
10659,3552,Gernika 5 Abaro,,43.2229008404806,-2.88825349611646,,,0,
10660,4923,Ugarte El Juncal,,43.2917233151118,-3.01484979025235,,,0,
10661,5531,Eleizalde,,43.2973246260432,-2.63753111430052,,,0,
10663,0208,Maurice Ravel Teléfonica,,43.2676252946101,-2.91852078955894,,,0,
10664,3122,Gerediaga,,43.1698967264901,-2.6054415029936,,,0,
10665,3851,Mendiola,,43.3727395207247,-2.56353775151491,,,0,
10666,5080,Gatzarriñe Metro Larrabasterra,,43.3758442925045,-2.99109342242022,,,0,
10667,4190,Telletxe 40,,43.3557461379384,-3.01180356394438,,,0,
10668,3964,Bizkai,,43.232461454406,-2.84062543867242,,,0,
10669,4321,Garagarreta,,43.3664055206483,-2.56018423543736,,,0,
10670,3613,Itxurriandia Mikel Deuna,,43.41805018086,-2.74537785183752,,,0,
10671,4136,Sertutxe,,43.4170607979478,-2.9265813488453,,,0,
10672,9028,Urreta,,43.2341478565923,-2.8491925411311,,,0,
10673,4514,Goitondobekoa Hambre,,43.1944683584898,-2.52136585025501,,,0,
10674,4919,Babcock El Juncal,,43.2980267519871,-3.01322384760852,,,0,
10675,4704,Landabarrena,,43.3893167596694,-2.79921724340204,,,0,
10676,3760,Ugunagane,,43.1120589728761,-2.76305175725402,,,0,
10677,4927,Arkotxa,,43.3002386310985,-3.03100257239731,,,0,
10678,0110,Bidarte Lehendakari Aguirre 42,,43.2721731692944,-2.9508026504674,,,0,
10679,3141,Sanfuentes Kotxetegia / Cocheras,,43.3251760983261,-3.0729193812762,,,0,
10680,0605,Alameda Recalde 11,,43.266698490694,-2.93333320028349,,,0,
10681,3202,Oleta,,43.3437722243158,-2.50546888033824,,,0,
10682,5281,Axpeko Erribera,,43.3127665668379,-2.98327354872922,,,0,
10683,4590,Emerando Gane,,43.3848470929883,-2.77801179987835,,,0,
10684,5212,La Llana,,43.2168133279663,-3.14176880600928,,,0,
10685,4041,Gorordo,,43.369580722705,-2.8841798785717,,,0,
10686,3912,Mandaluiz,,43.3397939823653,-2.79011884170451,,,0,
10688,4763,Oyancas,,43.3258674370231,-3.12300291011933,,,0,
10690,5429,Arteaga,,43.2843041145017,-2.86422815658242,,,0,
10691,4725,Beko Kale Torrebillela,,43.3534120229604,-2.84877156369632,,,0,
10692,3199,Arbitxa,,43.337325011199,-2.51447160091983,,,0,
10693,3180,Astepe,,43.2129404206291,-2.74190402468246,,,0,
10694,5426,La Ola,,43.2911229729633,-2.92531811505444,,,0,
10695,5168,Areatza,,43.1212262198662,-2.76975029468192,,,0,
10696,4729,Bengoetxe,,43.3221488080986,-2.54197236626656,,,0,
10697,0105,Bidarte Lehendakari Aguirre 33,,43.271975161485,-2.95102339476535,,,0,
10698,5347,Mezo 24 Farmazia,,43.3162962265091,-2.98233521572956,,,0,
10699,5427,Lekunbiz,,43.2878753661338,-2.87714294526246,,,0,
10700,5310,Asua Makro,,43.3037515810387,-2.94907755966581,,,0,
10701,4484,Armintzekalde,,43.4318408926256,-2.89710745732903,,,0,
10702,3208,Munitibar,,43.2658085703215,-2.59221913354058,,,0,
10703,4983,El Calero,,43.3461270603632,-3.06995195638696,,,0,
10704,3205,Olarra,,43.1491211868686,-2.78959580688233,,,0,
10706,4285,Elexalde,,43.3310169798866,-2.53719372867093,,,0,
10707,5545,Torrelarragoiti,,43.2788214266268,-2.85062184003273,,,0,
10708,5240,Mendieta Biribilgunea / Rotonda,,43.212027218699,-2.88326298076906,,,0,
10709,3100,Matiena San Blas,,43.1694155171785,-2.60822140148574,,,0,
10710,4779,Cobaron,,43.3453772744887,-3.14694570735992,,,0,
10711,3845,Altxikerre,,43.3810045362176,-2.58251466263781,,,0,
10714,4728,Palado,,43.3534102396126,-2.84088641730409,,,0,
10715,4669,Elgezabal Hornigailua / Surtidor,,43.3367263341565,-2.83552707575701,,,0,
10716,3830,Olleria,,43.1713069324704,-2.6270698995388,,,0,
10717,4113,Orabille,,43.4169912639316,-2.91731702688929,,,0,
10718,4284,Okamika,,43.3301129888265,-2.54301020602425,,,0,
10719,5074,Ander Deuna Ermita,,43.3905107760549,-2.97866718947023,,,0,
10720,5350,Mezo 68 - 70 Bistalai,,43.3146457010564,-2.96990524704607,,,0,
10721,4166,Salsidu Basotxi,,43.3558456987995,-3.00135149127792,,,0,
10722,9001,Bildosola Industrialgunea,,43.1385916684759,-2.78396538758791,,,0,
10723,4639,Zugastieta,,43.252116654854,-2.69339790087809,,,0,
10724,4511,Areitiogana,,43.1824708445364,-2.53255905896687,,,0,
10725,9033,Saturraran,,43.3152020500623,-2.41135502451093,,,0,
10726,5251,Artebakarra,,43.3182748227874,-2.8771256189675,,,0,
10727,3106,Matiena San Blas,,43.1695680899773,-2.60807279574955,,,0,
10728,5563,Campanzar,,43.3221561236663,-3.02953322414964,,,0,
10729,4947,Kurutzea / La Cruz,,43.2765180081524,-2.84538197307037,,,0,
10730,3819,Bernaola,,43.1227395248066,-2.73862064555976,,,0,
10731,4609,Usila Industrialdea,,43.1841473076548,-2.90108561675912,,,0,
10732,3161,Ibarguren,,43.2025089135982,-2.7119346661362,,,0,
10733,3207,Zelaia,,43.1568019762697,-2.78936023321555,,,0,
10734,4273,Errenteria,,43.3179944289679,-2.67436124420015,,,0,
10735,3279,Madariaga,,43.3423107447297,-2.77827849633127,,,0,
10736,0210,Maurice Ravel Begiratokia / Mirador,,43.2699244479458,-2.92279359696651,,,0,
10737,5304,Ibañez Betolatza,,43.295438532399,-2.96864543877853,,,0,
10738,0203,Campo Volantín 1 Udaletxea / Ayuntamiento,,43.2639549774502,-2.92358984381942,,,0,
10739,0543,Areatza / Arenal San Nikolas,,43.2604157628863,-2.92302763433068,,,0,
10740,9013,Las Calizas,,43.3032960721345,-3.07815237234221,,,0,
10741,4855,Rotonda De Plentzia,,43.4051242081145,-2.94883859713266,,,0,
10743,3921,Askarri,,43.2327837060195,-2.81527989469627,,,0,
10745,0260,Zorrotza - Kastrexana Flex,,43.2712799063343,-2.9745282898496,,,0,
10746,3466,La Paz 14 Anbulatorioa,,43.2803323369049,-2.9864383400058,,,0,
10747,4395,Elexalde Auzo Etxea / Centro Cívico,,43.3257696560405,-2.98684648376507,,,0,
10748,4524,Urtiaga Industrialdea Ges,,43.1861332011367,-2.5200159271965,,,0,
10750,4974,Iparragirre Repsol,,43.3431065919063,-3.06095441352086,,,0,
10751,4965,Cabieces,,43.3217756907292,-3.03748797603216,,,0,
10752,4985,Landeta San Juan,,43.337629622895,-3.04624401876987,,,0,
10753,4099,Largatxa,,43.1541872419584,-3.10637635799416,,,0,
10754,5030,Urbinaga La Naval,,43.3065181898858,-2.98934181885222,,,0,
10755,3815,Elgabide,,43.105966015732,-2.72082263391153,,,0,
10756,5162,Torre,,43.1024032314755,-2.58082770430081,,,0,
10757,4406,J. M. Barandiaran Institutua,,43.3338624899696,-2.97406484931467,,,0,
10759,3925,Olabarri,,43.2320237732851,-2.82453084304002,,,0,
10760,3110,San Antolín,,43.1372164373017,-2.5959101346649,,,0,
10761,4360,Urkulu,,43.250715934256,-2.80161297623916,,,0,
10762,3946,Erdikoetxea Gasolindegia / Gasolinera,,43.2324583524973,-2.79342151282576,,,0,
10763,3111,San Antolín,,43.1372337082088,-2.59570098789056,,,0,
10764,3940,Abusu,,43.2297773010546,-2.83371171334891,,,0,
10765,5357,Sakoni,,43.300315767583,-2.95864395156521,,,0,
10766,4650,Bidakurtze,,43.293318621192,-2.71362082244288,,,0,
10767,3342,Balejo,,43.2835465847173,-2.9833314745033,,,0,
10769,4709,Llona,,43.3440601792619,-2.8149030033928,,,0,
10770,4286,Leguarri,,43.3335737395043,-2.53484288550476,,,0,
10771,3733,Herriko Plaza,,43.1323775106869,-2.78287885769773,,,0,
10772,3915,Aperribai,,43.2400036624776,-2.87384837883007,,,0,
10773,3550,Gernika 46 San Migel,,43.2193702284683,-2.88748437497419,,,0,
10774,4743,Ibarrola,,43.2928460365982,-2.57649939148259,,,0,
10775,5264,Abeletxea / Granja,,43.2947365569706,-2.86865515020634,,,0,
10776,4703,Ereñotzaga,,43.3803338861214,-2.80122481891479,,,0,
10777,5152,Iturralde,,43.1052111436754,-2.58284862814294,,,0,
10778,4713,La Bilbaina Auzo - Etxea / Centro Cívico,,43.3248337536498,-2.85022448171141,,,0,
10779,4407,Sarriena Irlandesas,,43.3337831802921,-2.98276152621808,,,0,
10780,5007,Catalina Gibaja 40,,43.3105304173616,-3.05632314101801,,,0,
10781,3581,Elexalde Udaletxea / Ayuntamiento,,43.3631932327047,-2.99587172766141,,,0,
10782,3302,Kurtzikene,,43.408297987972,-2.8140837993228,,,0,
10783,4027,Ugarte,,43.3662239636541,-2.8773858175733,,,0,
10784,3731,Bildosola,,43.143722901383,-2.78722875253936,,,0,
10785,5048,Las Llanas,,43.3097421382569,-3.00928016089981,,,0,
10786,4510,Trabakua,,43.2123261858958,-2.54368160065484,,,0,
10788,5250,Artebakarra,,43.3184096658786,-2.87691569386936,,,0,
10789,4010,Garellano,,43.3380559083505,-2.80517551135814,,,0,
10790,0264,Las Delicias,,43.2551257671499,-2.97248599868039,,,0,
10791,5037,Iberia,,43.3113541310499,-3.00517414087926,,,0,
10792,3766,Arkulanda,,43.155674690989,-2.87820894914233,,,0,
10793,4591,Emerando Gane,,43.3844666250062,-2.77684032476283,,,0,
10794,5138,La Penilla,,43.1867842020103,-3.20318607317385,,,0,
10795,5119,Elortza,,43.3730867231529,-2.95024283841275,,,0,
10796,3837,Zarakondegi,,43.3700905507268,-2.56544534940632,,,0,
10798,5012,El Minero Anbulatorioa,,43.3083897614511,-3.05113001241351,,,0,
10799,5244,Asteintza Apaiztegia / Seminario,,43.2895920009944,-2.88244762585024,,,0,
10800,3575,Lantzarte,,43.3610862971432,-2.99687163066586,,,0,
10801,4600,Torre De Ugao 8,,43.181460567713,-2.90247549186442,,,0,
10802,3579,Sabino Arana 24,,43.3659577819913,-2.99946311509224,,,0,
10803,3576,Elexalde Kultur Etxea / Casa De Cultura,,43.3645258965146,-2.99574821837945,,,0,
10804,4245,Euskadi Plaza,,43.2126421427882,-3.0955945343454,,,0,
10805,3142,Sanfuentes Kotxetegia / Cocheras,,43.3251084837808,-3.07304510626463,,,0,
10806,1046,Mikoleta,,43.2663210547119,-2.89787080324391,,,0,
10807,5326,Magdalenabidea Errekurtze,,43.3291389465388,-2.95721885956489,,,0,
10808,4680,Basozabal Basabitxi,,43.344918937475,-2.85424613047423,,,0,
10809,1031,Etxearte,,43.2643595898386,-2.88984037542146,,,0,
10810,4424,Langileria Txopoeta / La Chopera,,43.3194221484844,-2.99466706859772,,,0,
10811,3416,Esquina Abajo,,43.1015799017468,-3.0464765428115,,,0,
10812,0485,Zumalakarregi Makua Plaza,,43.2571120355312,-2.91191899764922,,,0,
10813,4698,La Bilbaina Urbide,,43.3293296039063,-2.85219920824797,,,0,
10814,4402,Santimami Eroski,,43.318514092326,-2.97363135193984,,,0,
10815,4412,Ehu Biblioteka,,43.3306555963727,-2.96897184607502,,,0,
10816,3842,Beñaga Tres Cruces,,43.3823328047364,-2.61732006429191,,,0,
10817,5509,Aldanondo Elkartegia,,43.2413970610006,-2.99476182236418,,,0,
10818,3519,Max Center,,43.2900219002659,-3.01073221958771,,,0,
10819,4516,Trabakua,,43.2101737340081,-2.54586433074686,,,0,
10820,5096,Mercadillo Udaletxea / Ayuntamiento,,43.2618613463256,-3.15404804280587,,,0,
10821,3828,Faustekalea,,43.1691603632813,-2.62333058384291,,,0,
10822,3413,Esquina Abajo,,43.1011832457177,-3.04754537404733,,,0,
10824,4563,Asteinza,,43.3835217658386,-2.8776221975052,,,0,
10825,3361,Gernikako Arbola Epaitegiak / Juzgados,,43.2941632180828,-2.9913829705481,,,0,
10826,4247,Zaramillo,,43.2332471675468,-3.01455356262463,,,0,
10827,4791,Elizabarri,,43.0434135015657,-2.65391366944136,,,0,
10828,3479,Erreketa,,43.3018707907522,-2.98193289870025,,,0,
10830,3524,Munoa Kotxetegia / Cocheras,,43.2856973308884,-2.97614486234193,,,0,
10831,4121,Kiroldegia / Polideportivo,,43.4168062958863,-2.93758773725666,,,0,
10832,1054,Museo Plaza,,43.2660614705191,-2.93742479291045,,,0,
10833,3744,Palometxe,,43.1337335520713,-2.7905586700202,,,0,
10834,3574,Axgane,,43.3587721624976,-2.99813050353306,,,0,
10835,4642,Iturri,,43.2950677244758,-2.72000446949322,,,0,
10836,4199,Andra Mari,,43.3640252217808,-3.01706635061363,,,0,
10837,4941,El Juncal Ford,,43.2942707363677,-3.0140412215063,,,0,
10838,5201,Lusa,,43.2136948083145,-3.13088283289579,,,0,
10839,4804,Errenteria,,43.3211447761626,-2.44546111961038,,,0,
10841,4324,Garagarreta,,43.3676346129252,-2.56071756107931,,,0,
10842,1015,Artxanda Begiratokia / Mirador,,43.2691578702466,-2.90894395837536,,,0,
10843,3400,Puente Llanteno,,43.1402424500874,-3.1072021266114,,,0,
10844,4146,Los Chopos 35,,43.3400968358944,-3.00208050193622,,,0,
10845,5486,Bidebarrieta,,43.1752455048295,-2.63645850171936,,,0,
10846,4621,Izabele,,43.3103797672417,-2.74721549176931,,,0,
10847,3304,Egia - Frontoia,,43.4180199590263,-2.81329312775317,,,0,
10848,4430,Artatza Landabarri,,43.3322267419049,-2.99705875936472,,,0,
10849,4086,Allende,,43.1679022445009,-3.10069524123371,,,0,
10850,4004,Bekoetxebarri,,43.3138435090862,-2.81343675842202,,,0,
10851,4944,Salcedillo,,43.3046530944019,-3.02089427897011,,,0,
10852,3306,Olaskoetxe Irubide,,43.4270485621233,-2.81162209709945,,,0,
10853,4194,Av. Del Angel 23,,43.3585190839117,-3.01619984949798,,,0,
10855,5355,Arriluze,,43.3107448134435,-2.96368013826629,,,0,
10856,4741,Mendikoetxe,,43.3149951929182,-2.54097789122071,,,0,
10857,3137,Institutua / Instituto,,43.3164901405466,-3.07466657439884,,,0,
10858,3657,Itxas Begi,,43.3918681963622,-2.69508577248836,,,0,
10859,4256,Arangoiti Gueñes,,43.2128699675888,-3.10295702695848,,,0,
10860,3181,Katia,,43.236482237556,-2.72420486377608,,,0,
10861,4443,Luis Bilbao Libano,,43.3228340701164,-2.98605789973614,,,0,
10862,4465,Mendieta,,43.2097462271251,-2.79207063819496,,,0,
10863,5484,Mallabiena,,43.177509601807,-2.64620250310065,,,0,
10864,5252,Santa Clara Komentua / Convento,,43.3145401460316,-2.87921733612286,,,0,
10866,5453,Teknologia - Parkea Edificio Barco,,43.2890531968071,-2.85985397078356,,,0,
10867,4097,Las Llanas Ermita,,43.1635693723794,-3.10244119171167,,,0,
10868,4596,Ugarte,,43.356456672858,-2.80264823221034,,,0,
10869,3483,Anaitasuna 10,,43.2833493467052,-2.98996275407894,,,0,
10870,3784,Areiltza,,43.1510450607153,-2.86514938580109,,,0,
10871,4078,Pontón Urarte,,43.1763218617994,-3.08950979967618,,,0,
10872,4394,Donibane / San Juan Kontserbatorioa,,43.3238241582914,-2.98298659476098,,,0,
10873,4232,Lakabex Iberdrola,,43.2182517919448,-3.02869737766165,,,0,
10874,3910,Zubiaurre,,43.190773659428,-2.50180242752488,,,0,
10875,3170,Montorra,,43.2059030072665,-2.71521539824267,,,0,
10876,5174,Elexalde,,43.1640099322436,-2.77725545157045,,,0,
10877,3736,Biteri,,43.1250123423278,-2.77634146180629,,,0,
10878,4636,Kurtzero Geltokia / Estación,,43.2871955611424,-2.68942800331806,,,0,
10879,5441,Egirleta,,43.2797020977767,-2.89810699819055,,,0,
10880,4370,Aurrekoetxe,,43.3493079871392,-2.89905017170608,,,0,
10881,4564,Olea,,43.3793133596265,-2.88297612210179,,,0,
10882,4263,Geltokia / Estación,,43.3136773582266,-2.67654972196363,,,0,
10883,3780,Ermitabarri,,43.1466588575621,-2.833655568605,,,0,
10884,9012,Las Calizas,,43.3031247821147,-3.07844806003674,,,0,
10886,3470,Cruces Ospitaleahoracio Etxebarrieta,,43.2818985157386,-2.9818900020501,,,0,
10887,4973,Balparda,,43.3194048869157,-3.04494795839136,,,0,
10889,3154,El Campillo San Miguel,,43.3084356184885,-3.07724378436697,,,0,
10890,4884,Peñota Nautika,,43.3262637220346,-3.02294865867065,,,0,
10891,3762,Elorrebieta,,43.1702129591902,-2.89656484365868,,,0,
10892,4435,Aldekoena,,43.3331622106367,-2.98522880953409,,,0,
10893,3753,Altzusta,,43.0884329813288,-2.73970093771453,,,0,
10894,4281,Leguarri,,43.3334231736243,-2.53546081303046,,,0,
10895,4910,Zaballa,,43.2979251843434,-3.02777135284502,,,0,
10896,4466,Intzuntza Gasolindegia / Gasolinera,,43.2094937781719,-2.78217378767052,,,0,
10897,4711,Tejera,,43.3458097736477,-2.81110989232813,,,0,
10898,4451,Negurigane,,43.3349821581915,-2.99797136012891,,,0,
10899,5321,Magdalenabidea Ibarra,,43.3215679192313,-2.96240300296302,,,0,
10900,3307,Bentalde,,43.4291048410232,-2.80503297549213,,,0,
10901,5420,Basozabal,,43.2989195005337,-2.92308929999925,,,0,
10902,4233,Sodupe Geltokia / Estación,,43.2021602744731,-3.0507750909025,,,0,
10903,1009,Bailen 1,,43.2600844696799,-2.92587415062752,,,0,
10904,5266,Ugaldeguren Industrialdea,,43.2893471950464,-2.88971097646742,,,0,
10905,4503,Larrotegi,,43.3603608108338,-2.50659924531375,,,0,
10906,5211,La Flor El Paraíso,,43.2198020226451,-3.15633655725198,,,0,
10907,5003,Antonio Alzaga 34a,,43.3248032304329,-3.03044708778609,,,0,
10908,3902,Gipuzkoa Etorbidea 58 San Lorenzo,,43.1805026944896,-2.49847765961707,,,0,
10909,3146,Sanfuentes 70,,43.3262876367054,-3.07374093158531,,,0,
10910,5298,Asua La Avanzada 12,,43.3039132356959,-2.94812434490934,,,0,
10911,3659,Landaberde Bbkren Udalekua / Colonia Bbk,,43.3887902555583,-2.69568150170235,,,0,
10912,3458,Irabien Batzokia,,43.1576594387671,-3.02605017559531,,,0,
10913,3961,Anbulatorioa,,43.2341419493163,-2.84470969728297,,,0,
10914,4290,Ibinaga,,43.3928369470043,-2.63255267783944,,,0,
10915,5217,La Herrera - Ijalde,,43.2031717784736,-3.16936386850974,,,0,
10916,4411,Ehu Laboa Plaza,,43.330385156281,-2.96787417085519,,,0,
10917,4858,Geltokia / Estación Metro,,43.4019895687288,-2.94645790619542,,,0,
10918,0804,Basurto Ospitalea / Hospital Basurto,,43.2596213171608,-2.95214240558647,,,0,
10919,4173,Zugazarte 54 Triángulo,,43.3358913100445,-3.00976463268502,,,0,
10921,4175,Algortako Etorb. 16 Txomintxu,,43.3420189426626,-3.00937193043033,,,0,
10922,5103,El Carral Esnetegia / Lechería,,43.2552527113844,-3.15345259935675,,,0,
10923,3905,Zeharkalea 26 Kiroldegia / Polideportivo,,43.1870815737912,-2.50799409589899,,,0,
10924,3295,Lepanto Lanbarketa,,43.2130504694806,-2.88909646287805,,,0,
10925,3770,Zautuola,,43.1475563577333,-2.85467054677628,,,0,
10926,3932,Usansolo,,43.2185550962489,-2.81441198029294,,,0,
10927,9021,Ametza,,43.363353005087,-2.80726621572125,,,0,
10928,3781,Zubibarria,,43.1468388383955,-2.84313684155705,,,0,
10929,4959,Murrieta 42 Batzokia,,43.3274228890463,-3.02887477638744,,,0,
10931,4287,Lariz - Oleta,,43.3386664121435,-2.52730334107768,,,0,
10932,5267,Apaiztegia / Seminario,,43.293380420509,-2.88001168986096,,,0,
10933,4128,Gandia,,43.4017402936179,-2.94303733008387,,,0,
10935,5097,Cotarros,,43.2700647469323,-3.15387144235858,,,0,
10936,4721,Goietako Plaza,,43.3542778244358,-2.84316701580914,,,0,
10937,4792,Ospital Kalea,,43.0399799368034,-2.65303689708861,,,0,
10938,3922,Erletxeta Ermita,,43.2361692054111,-2.80428383991695,,,0,
10939,4647,Igertu,,43.2897759643347,-2.69465953919399,,,0,
10940,5185,San Andres,,43.1738145728553,-2.54639270546533,,,0,
10941,4167,La Avanzada 28 Antiguo Golf,,43.3337936039046,-3.00370760783606,,,0,
10942,1047,Orueta,,43.2652626631007,-2.90264111635682,,,0,
10943,5312,Erandiondo,,43.3021522881902,-2.95749608493525,,,0,
10944,5370,Asua Inbisa,,43.3024542249383,-2.94754610703807,,,0,
10945,2198,Abando Geltokia / Estación,,43.2600954288036,-2.92895433158064,,,0,
10946,4137,Los Chopos 22,,43.3398807292284,-3.00193121808594,,,0,
10947,4890,General Castaños 113,,43.3246996350117,-3.03060737578484,,,0,
10948,3802,Ziarrusta,,43.1519820329152,-2.76950167365231,,,0,
10950,5020,San Antón,,43.3080086909247,-3.03422464540481,,,0,
10951,4915,Zaballa,,43.2977991166833,-3.02778362385899,,,0,
10952,3571,Basozelai Axular 42,,43.2365098169445,-2.89623380044051,,,0,
10953,4067,Zubiete 93 Isasi,,43.1878783143357,-3.05546251323166,,,0,
10955,4431,Udondo,,43.3200877602615,-2.9867986246164,,,0,
10956,5164,Elexalde,,43.2085401212218,-2.80258768583543,,,0,
10957,4934,Alto Alday,,43.3046789572975,-3.0264550175334,,,0,
10958,5056,Chavarri Gasolindegia / Gasolinera,,43.3135959626057,-3.01090851587357,,,0,
10959,5023,Nocedal,,43.3193065262879,-3.06279347634989,,,0,
10960,5479,Arriandi,,43.1817384285408,-2.65672383510271,,,0,
10961,3491,Primero De Mayo,,43.2917241831778,-2.99884901303581,,,0,
10964,4143,Los Chopos 93 Getxo I,,43.3527751502893,-3.00481882546197,,,0,
10965,3334,Burtzeña Gasolindegia / Gasolinera,,43.2796738501374,-2.97887110367784,,,0,
10968,3221,Susaeta,,43.2721553976553,-2.59689050481447,,,0,
10969,4141,Ollaretxe 10 El Redentor,,43.3569711632003,-3.00675659404817,,,0,
10970,5236,Arkotxa,,43.2302494245461,-2.86473463881136,,,0,
10971,4104,Largatxa,,43.1542684796444,-3.10616740747689,,,0,
10972,3644,Iturritza,,43.1700198371974,-2.57533812805112,,,0,
10973,0629,Zabalburu - Quinta Parroquia,,43.2579450601391,-2.93274324286656,,,0,
10974,9034,Saturraran,,43.3149778989274,-2.4115421654394,,,0,
10975,4508,Areitiogana,,43.1822938988947,-2.53222817139464,,,0,
10976,3464,Anaitasuna 12 Correos,,43.2827640263108,-2.98975331933553,,,0,
10977,4691,Belako,,43.3461498398262,-2.81808730351974,,,0,
10978,4665,Billela,,43.3707379970663,-2.85676354212042,,,0,
10979,3206,Olarra,,43.1491567987579,-2.78937431233822,,,0,
10980,4211,Santa Ana Plaza,,43.3234361031283,-3.01164511045961,,,0,
10981,4513,Trabakua,,43.2092702823706,-2.54738522736607,,,0,
10982,4744,Ibarrola,,43.2927643580764,-2.57632737535102,,,0,
10983,5380,Larrabarri Olarra,,43.2955928373157,-2.90587135911508,,,0,
10984,1050,Ensanche Plaza Mapfre,,43.2639503661582,-2.93047759847753,,,0,
10985,4368,Etxezuri,,43.3482966486491,-2.89599199793616,,,0,
10987,3878,Bidekalea Elantxobe,,43.4024531816614,-2.63946207095979,,,0,
10988,4531,Goitondogoikoa,,43.1984535375256,-2.52907664768361,,,0,
10989,3655,San Cristobal,,43.3679600470303,-2.69451721215916,,,0,
10990,4100,Zabaia Bekoa,,43.1738674068727,-3.02905516322439,,,0,
10991,5361,Magdalenabidea Errekurtze,,43.3292108947216,-2.95698321556221,,,0,
10992,3339,Retuerto 17,,43.2833407331745,-2.99664315890992,,,0,
10993,5511,Digipen Cabot,,43.3501752674,-3.07596556653325,,,0,
10994,5372,Altzaga - Erandiogoikoa Beitibekoa,,43.3015675727969,-2.95909928159529,,,0,
10995,3850,Mendiola,,43.3725068701034,-2.5639220680982,,,0,
10996,4003,Duene,,43.3233616407291,-2.8165080433256,,,0,
10997,5464,Idokiliz,,43.3325478395592,-2.65721302817276,,,0,
10998,3299,Atxukarro Industrialdea 14 Biribilgunea / Rotonda,,43.2160166060081,-2.89284621672685,,,0,
11000,4587,Bidebieta,,43.3736071224309,-2.80093832075343,,,0,
11001,3643,Parrokia,,43.1763983099608,-2.57665351279673,,,0,
11002,3939,Erdikoetxea Gasolindegia / Gasolinera,,43.2315069457612,-2.7901735629593,,,0,
11003,4960,San Juan De Dios Ospitalea / Hospital,,43.325281893044,-3.02453936781512,,,0,
11005,3590,Mañu,,43.3993978219675,-2.7589975957103,,,0,
11006,5126,Mendi Ondo Eskolak / Escuelas,,43.3680391185394,-2.93934202753402,,,0,
11007,4363,Zugatzarte,,43.3574807367847,-2.91716464030421,,,0,
11008,4085,Sandamendi,,43.1782839336057,-3.07844973288891,,,0,
11009,3209,Munitibar,,43.2657502654416,-2.59228236441224,,,0,
11010,3516,Landeta Parkea,,43.2921287433597,-2.98864204896627,,,0,
11012,4747,Las Llanas,,43.323637755135,-3.12814165002405,,,0,
11013,4130,Kautela Gandia Goikoa,,43.402823196526,-2.9390719503093,,,0,
11014,4659,Goiko Kalea 35,,43.4071989464441,-2.69952350143041,,,0,
11015,5131,Campo De Las Monjas,,43.1931246857851,-3.19787546444503,,,0,
11016,4885,Peñota Nautika,,43.3261646618052,-3.02299795786937,,,0,
11017,5170,Bolibar Egoitza,,43.1191017230372,-2.7678922679149,,,0,
11018,0701,La Casilla Autonomía 45,,43.2576269865127,-2.94278794717229,,,0,
11019,4528,Apoita,,43.2062340304251,-2.55151561589929,,,0,
11020,4738,Aulestia Plaza,,43.2970758629813,-2.5627388660601,,,0,
11021,3740,Sarasola,,43.1354026274414,-2.80241833420546,,,0,
11022,4037,Urondo,,43.3742327721756,-2.8898862321424,,,0,
11023,0140,San Pedro Plaza,,43.2719904971383,-2.94513290408569,,,0,
11024,3124,Las Postas,,43.3217120200399,-3.06857900105487,,,0,
11026,3829,Faustekalea,,43.1692696707022,-2.62368299358756,,,0,
11027,3533,Azalakopozo Bideondo,,43.4014081848391,-2.97172524022203,,,0,
11028,3814,Elgabide,,43.1054254868319,-2.7207267725861,,,0,
11029,3460,Padura Hípika,,43.1629813860791,-3.02565879684662,,,0,
11030,4540,Aspiltza,,43.2909024352341,-2.48678487002999,,,0,
11031,3917,Ibaizabal,,43.2309066238446,-2.85016466583273,,,0,
11032,3732,Bildosola,,43.1439568203542,-2.78711726449451,,,0,
11033,4423,Elexalde Udaletxea / Ayuntamiento,,43.3268412075283,-2.98690792385336,,,0,
11034,4209,Kresaltxu 16,,43.3290931001969,-3.00641368171684,,,0,
11037,4280,Lariz - Oleta,,43.3385532273571,-2.52824167769787,,,0,
11038,3150,El Campillo Industrialdea,,43.3078851203431,-3.08284368960983,,,0,
11039,3101,Lebario,,43.1654654474674,-2.59837291332989,,,0,
11040,3654,San Bartolomé,,43.3766984350781,-2.69947021850943,,,0,
11041,3826,Madalena Plaza,,43.1715964945123,-2.63304749763122,,,0,
11043,0850,San Ignacio Lehendakari Aguirre 131,,43.2757695286835,-2.95975802473195,,,0,
11044,4471,Bolunburu,,43.2127840104538,-2.7590812058579,,,0,
11046,3831,Olleria,,43.1711862839191,-2.62735113913271,,,0,
11047,5122,Mendi Ondo Gasolindegia / Gasolinera,,43.3660072225067,-2.92926060527212,,,0,
11050,3594,Dondiz,,43.3932065049842,-2.77058501521496,,,0,
11051,5300,Magdalenabidea Ikatza,,43.3243849419397,-2.95833112427006,,,0,
11052,4354,Goikolexea,,43.2671008659581,-2.78483573366579,,,0,
11053,5442,Egirleta,,43.2814049788635,-2.89923917267736,,,0,
11054,5306,Lukileze,,43.3003349956833,-2.96216507228107,,,0,
11055,4066,Errekalde,,43.3452144056325,-2.65334635948823,,,0,
11056,4573,Olabe,,43.2836475252734,-2.63217702111084,,,0,
11057,4119,Aringoetxe Begoña Jatetxea,,43.4199947338307,-2.93920272521915,,,0,
11058,3285,Aguirre Martiartu Industrialdea,,43.1960960160785,-2.90044329412526,,,0,
11060,5032,Los Baños,,43.3107329297072,-2.99951662474549,,,0,
11061,0801,Autonomía 78 Lantik,,43.2580431191591,-2.94813126881249,,,0,
11062,5139,Avda. Encartaciones,,43.1896861313945,-3.20076268384912,,,0,
11064,4017,Laukike,,43.3293007167408,-2.82555608632047,,,0,
11065,0232,Biribila Plaza / Plaza Circular Navarra Kalea,,43.2610756652516,-2.92693255197303,,,0,
11067,5261,Islabe,,43.3086005291734,-2.88241050763263,,,0,
11068,4879,Carlos VII 18,,43.3179705886599,-3.02251402449109,,,0,
11069,3586,Moreaga,,43.366714149657,-2.99830292891874,,,0,
11070,3360,San Vicente Gernikako Arbola,,43.2943263457027,-2.99544652263705,,,0,
11072,3348,Lutxana Eliza / Iglesia,,43.2906956520892,-2.97954502460623,,,0,
11073,3640,Hormaztegi,,43.1765122096867,-2.58312472066546,,,0,
11074,3312,Otsategi,,43.4131960569199,-2.81387118829998,,,0,
11075,4396,Ondiz,,43.3278682201496,-2.99107675314676,,,0,
11076,0161,Juan De Garay Torre Urizar,,43.2512653978843,-2.93479160481834,,,0,
11077,0206,Campo Volantín La Salve,,43.2697498453353,-2.93125952916524,,,0,
11078,4599,Usila Zubia / Puente Usila,,43.1840839116723,-2.90066733280885,,,0,
11079,1034,Gran Vía 74,,43.2648487331319,-2.94295849443731,,,0,
11080,5508,Kortatxu,,43.2381195509689,-3.00105588059409,,,0,
11081,4337,Berresonaga Mirasol,,43.2648005281702,-2.80811377632319,,,0,
11082,3933,Ospitalea / Hospital,,43.2229388415411,-2.81911467298637,,,0,
11083,5248,Aldekone,,43.2983208834025,-2.88589487128753,,,0,
11085,4594,Ugarte,,43.3564294251304,-2.80251257780592,,,0,
11086,3957,Kortederra,,43.2309639668937,-2.77907994482755,,,0,
11087,4734,Goikolea,,43.2860456460925,-2.58579131259266,,,0,
11088,3149,Sanfuentes 1,,43.3234345745435,-3.07155443889552,,,0,
11089,5565,Puente Busterri Aterpetxea / Albergue,,43.4126310931679,-2.94287865695561,,,0,
11090,3534,Ziarreta Cantabrico,,43.4038359136697,-2.96875643774114,,,0,
11091,3356,San Eloy Av. Miranda,,43.2963875625582,-2.99471124409837,,,0,
11092,3186,Particular De San Pedro,,43.2240353956246,-2.73962355428812,,,0,
11093,3398,Garay Gasolinera,,43.1233257010609,-3.12194961651854,,,0,
11094,3745,Plaza Auzoa,,43.0984869909027,-2.74971007490219,,,0,
11095,4856,Portua / Puerto,,43.4074996639652,-2.94513141409663,,,0,
11096,4206,Amaia 22,,43.3226816179377,-3.00961488579517,,,0,
11097,4144,Los Chopos 51 Fadura,,43.3476966025113,-3.00021629357632,,,0,
11098,3779,Isasi,,43.1454260973588,-2.8311993670921,,,0,
11099,5314,Saratseta,,43.2988229074457,-2.96430391136448,,,0,
11100,4602,San Bartolomé Chakala,,43.1768003806969,-2.90224174968875,,,0,
11101,5270,Geldo,,43.300106427845,-2.87147910433885,,,0,
11102,3542,Larretxe,,43.4029071912273,-2.95708276259389,,,0,
11103,5223,Arangoiti Zalla,,43.211974018741,-3.10781839848163,,,0,
11104,9031,Musakola,,43.0719931208474,-2.47165818758495,,,0,
11105,3349,Andicollano Anbulatorioa,,43.288111603856,-2.98118530580826,,,0,
11106,5243,Udaletxea / Ayuntamiento,,43.290821078513,-2.88685831635556,,,0,
11107,4780,San Julian,,43.3319470280468,-3.11271496412914,,,0,
11108,4127,Gandia,,43.4013126620084,-2.94319827234449,,,0,
11109,5487,Bidebarrieta,,43.1749576692951,-2.63655863820494,,,0,
11110,3397,El Cantón,,43.1220969252933,-3.12574695720905,,,0,
11111,1003,Arabella,,43.2616757031197,-2.90973146190717,,,0,
11112,5172,Gezala,,43.1720547844043,-2.77671920852017,,,0,
11113,4807,Itxasaurre Portua / Puerto,,43.3228640919307,-2.42176470171308,,,0,
11114,4469,Arraibi - Tallerreta,,43.2064899325163,-2.77023161118538,,,0,
11115,3651,San Bartolomé,,43.3762836174351,-2.69923772605191,,,0,
11116,3512,La Libertad 18,,43.2972795974119,-2.99098334071471,,,0,
11117,4707,Lauaxeta,,43.3568361970232,-2.85063866725041,,,0,
11118,5518,La Arena / Ondarra,,43.3488938190901,-3.11248683451799,,,0,
11119,4775,Antonio Trueba,,43.3219412917603,-3.11447270212872,,,0,
11120,3945,Artola,,43.2455988347582,-2.80538665032954,,,0,
11121,4020,Santa Katalina,,43.193807958067,-2.61826234052349,,,0,
11122,4257,Arangoiti Gueñes,,43.212735173057,-3.102649019253,,,0,
11123,9002,Bildosola Industrialgunea,,43.1357650625092,-2.7844548735295,,,0,
11124,4916,Ugarte,,43.2917546398958,-3.01625756028767,,,0,
11125,3809,Lapurreketa,,43.066776369361,-2.67665093552014,,,0,
11127,4022,Aiartza - Sarria,,43.182210307978,-2.60527608063896,,,0,
11128,5470,Goierria,,43.3513326956269,-2.68265416992695,,,0,
11129,3543,Larretxe,,43.4030557730155,-2.95710488718775,,,0,
11130,5324,Libao Arostegi,,43.3303744084948,-2.96244678792797,,,0,
11131,5461,Idokilis,,43.3324753199271,-2.65705184248601,,,0,
11132,4230,Zaramillo,,43.2329590258152,-3.01447960220233,,,0,
11133,5302,Erandiogoikoa,,43.3072472053513,-2.95316447778784,,,0,
11134,3642,Vera Cruz Komentua / Convento,,43.1821550160971,-2.57447782429654,,,0,
11135,3947,Erletxeta Industrialdea,,43.238552485627,-2.80318337512178,,,0,
11136,4877,Carlos VII 3,,43.3200149855398,-3.02062784895866,,,0,
11137,4571,Ororoaga,,43.2935043912793,-2.63401581004273,,,0,
11138,3296,Severo Ochoa Lonbo Aretoa,,43.2117346742914,-2.88796635477117,,,0,
11139,5071,Zipiriñe Akilino Arriola,,43.3791663464241,-2.98596475763859,,,0,
11140,4124,Aringoetxe Begoña Jatetxea,,43.4200128410347,-2.93938800443833,,,0,
11141,3419,Inzier,,43.1338306442553,-3.03409416119045,,,0,
11142,3204,Zelaia,,43.156451988005,-2.79001333159872,,,0,
11143,3573,Agirre Lehendakaria San José Ikastetxea,,43.2372978475547,-2.88685984874763,,,0,
11144,4802,Astilleru,,43.3191068774566,-2.42130702701808,,,0,
11145,3456,Arenalde Malkuartu,,43.1534538646602,-3.02775811958935,,,0,
11146,4145,Los Chopos 45,,43.3434914752671,-3.00108003609481,,,0,
11147,4675,Trobika 4 Udaletxea / Ayuntamiento,,43.3543181376547,-2.84626420681053,,,0,
11148,5365,La Avanzada Ertzaintza,,43.3102848982482,-2.9615964882224,,,0,
11149,0702,Autonomía 13,,43.2573721666859,-2.93764325848169,,,0,
11150,5417,San Juan,,43.2993913128966,-2.92859951474896,,,0,
11151,4485,Urondo,,43.4263955398948,-2.89961240398592,,,0,
11152,4978,Iparragirre 35,,43.33290542187,-3.03724786463914,,,0,
11153,3538,Zahar - Egoitza / Asilo,,43.4054875548977,-2.96372275723699,,,0,
11154,3871,Zubialdea El Boquete,,43.244390679124,-2.90421825027957,,,0,
11155,3652,Axpe,,43.3830516874001,-2.69801896530327,,,0,
11156,3589,Mañu,,43.3993861871919,-2.75881771749819,,,0,
11157,3737,Biteri,,43.1250524288939,-2.77611880096136,,,0,
11158,5057,Rivas,,43.3079322260141,-2.99352158933196,,,0,
11159,3835,Angelutxu,,43.3806761102672,-2.598936087151,,,0,
11160,5344,Etxegorri Metro,,43.3151080815366,-2.98562817343777,,,0,
11161,4068,Zubiete 79 Txelus,,43.1866165236126,-3.05772567283899,,,0,
11162,4800,Errenteria,,43.3209558681535,-2.44549983685441,,,0,
11163,5419,Berreteaga,,43.298060849573,-2.91857817331717,,,0,
11164,3836,Donibane Ea,,43.3801432071137,-2.58584398078378,,,0,
11165,3755,Zulaibar,,43.1070301679595,-2.756864690713,,,0,
11166,3185,Boroa Ordainlekua / Peaje,,43.2308968782439,-2.75064535733035,,,0,
11167,9038,Billela Torrontegi,,43.3730392123972,-2.86086855034824,,,0,
11168,4634,Zugastieta,,43.2520353132721,-2.69328620473097,,,0,
11169,5358,La Avanzada 26,,43.3131044891528,-2.96519538190697,,,0,
11170,0607,Moyua Plaza Subdelegación Del Gobierno,,43.2633052440565,-2.93598477712252,,,0,
11171,3151,El Minero 56,,43.3126372664136,-3.07297492385943,,,0,
11172,3393,La Torre,,43.1327557798582,-3.11563608621881,,,0,
11173,3840,Angelutxu,,43.3806115210321,-2.59849208799785,,,0,
11174,4762,Iturrizar,,43.3235173270953,-3.12292429044989,,,0,
11175,3919,Abusu,,43.2306472943698,-2.83134477558466,,,0,
11176,4340,Goikola,,43.2658679421956,-2.79006704157651,,,0,
11177,3136,El Minero 17,,43.3135738514301,-3.0726652888084,,,0,
11179,5445,Teknologia - Parkea Innobasque,,43.2915045492388,-2.86157278224877,,,0,
11180,4685,Anibarri,,43.3319490262315,-2.83216022195009,,,0,
11182,4288,Lariz,,43.3397057862456,-2.52389031063992,,,0,
11183,1037,Ibarrekolanda,,43.2732545941778,-2.95285856010387,,,0,
11184,3778,Albitzu,,43.1408392977608,-2.81451059429135,,,0,
11185,3513,Landeta Bekoa,,43.2931012875858,-2.98909798320539,,,0,
11186,4427,Langilería Txopoeta / La Chopera,,43.3195932350396,-2.99465472084154,,,0,
11188,4242,Gallarraga Farmazia,,43.2022346809713,-3.04906196821246,,,0,
11189,5051,Kueto Vicente Blasco Ibáñez,,43.3077613996382,-3.00168433273536,,,0,
11190,5207,Las Pedrajas,,43.2040260164821,-3.15943075396026,,,0,
11191,5318,Magdalenabidea Ibarra,,43.3215048465605,-2.96227971006016,,,0,
11192,3112,Andra Mari,,43.1432932140544,-2.60317457279215,,,0,
11193,3936,Juan Bautista Uriarte 16 Plazakoetxe,,43.2300454993384,-2.84522512428371,,,0,
11194,4052,Herriko Enparantza 25,,43.3497662352192,-2.65187680551596,,,0,
11195,4357,Andra Mari Elkartegia,,43.2590088023626,-2.79633725209412,,,0,
11197,5562,Atxondo Geltokia / Estación,,43.1316718135022,-2.58405742666533,,,0,
11199,5094,El Carral,,43.2496403048668,-3.15536022105043,,,0,
11200,5268,Apaiztegia / Seminario,,43.2934257148076,-2.8802704783627,,,0,
11201,5095,Mercadillo 9,,43.2643029441515,-3.15305614762844,,,0,
11202,4626,Aretxabalegana Morga Gane,,43.2836096510044,-2.75743550031541,,,0,
11203,4497,Irubide,,43.4203517186921,-2.90800541143505,,,0,
11205,3580,Sabino Arana 21,,43.3659127603518,-2.99972230111515,,,0,
11206,4070,Zubiete 15 La Industria,,43.1805727053506,-3.06891018720872,,,0,
11207,9035,Mijoa Industrialdea,,43.3080120778002,-2.39675073146546,,,0,
11208,3454,Arenalde Malkuartu,,43.1536159309884,-3.02784428849934,,,0,
11209,4624,Duo,,43.296528556045,-2.75848333142278,,,0,
11210,1039,Ibarsusi,,43.2493159576459,-2.90312255392359,,,0,
11212,5469,Larrabe,,43.3601023099607,-2.68898850913859,,,0,
11213,4720,Laukariz Ikastetxea / Colegio,,43.3383262976559,-2.85315173161176,,,0,
11214,5229,Abellaneda,,43.2287325844554,-3.16112002509482,,,0,
11215,3572,Karmelo Torre 17,,43.2375693984196,-2.89793164317574,,,0,
11216,4192,Avda. Del Angel 34 La Venta,,43.3614410832836,-3.01597219008673,,,0,
11217,4719,Laukariz Ikastetxea / Colegio,,43.3385061663066,-2.85297858549797,,,0,
11218,5117,Ubide,,43.0251514335788,-2.68833420486825,,,0,
11219,4319,Goikoetxe,,43.3856906707919,-2.62195221297628,,,0,
11220,3827,Madalena Plaza,,43.1718124478947,-2.63299699273146,,,0,
11221,4764,San Julián,,43.3330540023977,-3.11330911606094,,,0,
11222,3217,Matxinena,,43.2775520677443,-2.6241043607075,,,0,
11223,5136,La Penilla,,43.1866071428687,-3.20299720438235,,,0,
11224,4489,Urizar Pilotalekua / Frontón,,43.4137918724971,-2.9025361664885,,,0,
11225,3750,Zubizabal,,43.0513051349203,-2.69779100908293,,,0,
11226,3885,San Agustín,,43.1309408514397,-2.55735795538218,,,0,
11227,4322,Elejalde,,43.3616906685274,-2.54496840497468,,,0,
11228,9010,El Campillo San Miguel,,43.3081415067629,-3.07674045178619,,,0,
11229,3813,Bentatxuri,,43.1260593765659,-2.74525747626696,,,0,
11230,3808,Lapurreketa,,43.0671549196509,-2.67677176631898,,,0,
11231,3839,Donibane Ea,,43.3801784102906,-2.58561906130932,,,0,
11232,5540,Lexartza,,43.3150294377343,-2.65409832397972,,,0,
11233,3352,Herriko Plaza 3,,43.2973961559468,-2.98675471450757,,,0,
11234,3310,Estankoalde Romana,,43.4222266133499,-2.81426848927913,,,0,
11235,3494,San Eloy La Bondad,,43.2974319769498,-2.99252904212375,,,0,
11236,4525,Urtiaga Industrialdea Tva,,43.185131061653,-2.51512612515695,,,0,
11237,1004,Arabella,,43.2617389396642,-2.90999011175119,,,0,
11238,5179,Sabino Arana,,43.1632334028193,-2.77617206892916,,,0,
11240,5022,Bañales,,43.3126331807412,-3.06464876779756,,,0,
11241,4024,Botiola,,43.3536603547919,-2.88371694174295,,,0,
11242,5378,Elotxelerri Nafrisa,,43.2943279635106,-2.90086826980273,,,0,
11243,3476,Cruces Ospitalea Balejo,,43.2824479692727,-2.98299899167836,,,0,
11244,4076,Las Llanas Plaza,,43.161065099385,-3.10347397009325,,,0,
11245,5468,Larrabe,,43.3613105072809,-2.68957471662618,,,0,
11246,3763,Arbildu,,43.1636136562076,-2.88829973915685,,,0,
11247,4502,Sabino Arana Telefónica,,43.363022147827,-2.50924950193494,,,0,
11249,3584,Arana,,43.367587444687,-2.9961428415127,,,0,
11252,3625,Milloi Gane,,43.3120354801908,-2.48063777339827,,,0,
11253,3658,Landaberde Bbkren Udalekua / Colonia Bbk,,43.3887445107096,-2.69541010109089,,,0,
11254,4777,Oyancas,,43.325975345698,-3.12313880275162,,,0,
11255,5102,El Carral Esnetegia / Lechería,,43.2551264147187,-3.15362475905648,,,0,
11256,3904,San Ignacio 3,,43.1854289758734,-2.50275651724338,,,0,
11257,5039,Rivas,,43.3080538326451,-2.99436128072978,,,0,
11258,5273,Lutxana,,43.291738339421,-2.97134698839606,,,0,
11259,4549,Iruzubieta,,43.2538498105573,-2.52674024628593,,,0,
11260,5482,Maspe 9,,43.17382231032,-2.63913690552811,,,0,
11261,3854,Urtubia,,43.3706722354426,-2.57599937561227,,,0,
11262,4882,Bizkaia Zubia / Puente Bizkaia,,43.3230947893628,-3.01872940840827,,,0,
11263,3475,La Paz 21,,43.2811970151869,-2.98769530150182,,,0,
11264,3633,Berriz - Olakueta,,43.1679140936614,-2.57379648622837,,,0,
11265,5317,Magdalenabidea Zabalbidea,,43.3177331062991,-2.96574757563852,,,0,
11266,4094,Etxebarria,,43.1786286212563,-3.03711679284148,,,0,
11267,3468,Larrea 18,,43.2970531482602,-2.98087422002012,,,0,
11268,4355,Goikolexea,,43.2673030869638,-2.78463170467348,,,0,
11270,4429,Lamiako Metro,,43.3216194759591,-3.00111714151698,,,0,
11272,4565,Olea,,43.3798076916693,-2.88217274708676,,,0,
11273,4874,Errepelega / Repelega,,43.3146036576832,-3.0175062005392,,,0,
11274,5377,Larrabarri Olarra,,43.2955391941841,-2.9063399031921,,,0,
11276,5335,Altzaga - Erandiogoikoa Elexalde,,43.3077082671814,-2.95786200228368,,,0,
11277,3200,Arbitxa,,43.337225650401,-2.5143983745957,,,0,
11278,5320,Magdalenabidea Magdalena,,43.3258429846607,-2.95645535100998,,,0,
11279,4545,Azpiltza,,43.291200405559,-2.48696726990661,,,0,
11280,3313,Kurtzikene,,43.4073520639577,-2.81380262906021,,,0,
11281,3215,Agarre,,43.2736492909312,-2.61753518952171,,,0,
11282,4521,Mallabarrena,,43.1877312259018,-2.52965145563623,,,0,
11283,5503,Arbuio,,43.2361924099938,-3.00720151176123,,,0,
11284,3311,Egia - Frontoia,,43.4173352627121,-2.81307288455369,,,0,
11285,4651,Iturri,,43.2953284509748,-2.71983807969098,,,0,
11286,3934,Usansolo,,43.218680742286,-2.81415303816092,,,0,
11287,4946,La Arboleda,,43.2849045652223,-3.0536254150575,,,0,
11289,0225,Zumalakarregi 105 Etxebarria Parkea,,43.2615898424726,-2.91520214741266,,,0,
11290,5183,Garakoi,,43.1780350193413,-2.77495267574959,,,0,
11291,3214,Berreño,,43.2733939822724,-2.61127635622992,,,0,
11292,4676,Elordui,,43.36570346805,-2.82409343493792,,,0,
11293,4398,Artatza Suhiltzaileak / Bomberos,,43.3299935935389,-2.99650379675318,,,0,
11295,5322,Magdalenabidea Zabalbidea,,43.317607120805,-2.96601155957654,,,0,
11296,3134,El Minero 44,,43.3139249083903,-3.07299866152624,,,0,
11298,3635,Uribe,,43.1667044382588,-2.5587964949846,,,0,
11300,3900,Bizkaia Etorbidea 11,,43.1856209555594,-2.50341947000222,,,0,
11301,4291,Arboliz,,43.3896137110048,-2.6243490709045,,,0,
11302,4468,Estaziñoa,,43.2070323453312,-2.77584297473875,,,0,
11303,4372,Elizalde,,43.3523768028505,-2.90765800631357,,,0,
11305,3143,Sanfuentes 2,,43.323551687964,-3.07146824119346,,,0,
11306,4692,Atela,,43.3495800259736,-2.82637000686784,,,0,
11307,3344,Andicollano Anbulatorioa,,43.2882556062389,-2.98075383532882,,,0,
11308,4369,Etxezuri,,43.3484316491843,-2.89591773565604,,,0,
11309,4566,Asteinza,,43.3834135668728,-2.87748661221832,,,0,
11310,3305,Estankoalde Romana,,43.422307231104,-2.81400881683304,,,0,
11311,4940,Funikular Kalea Udaletxea / Ayuntamiento,,43.3053424842258,-3.03693573018371,,,0,
11312,0303,Jesus Galindez Adoratrices,,43.2604785579103,-2.90476669431768,,,0,
11314,5284,Jose Luis Goioaga,,43.2994113434201,-2.97597022836675,,,0,
11315,0812,Zorrotza Fray Juan 13,,43.2765476664332,-2.97198301547746,,,0,
11316,4694,Sabino Arana,,43.3522068575575,-2.84322182961316,,,0,
11317,0633,Abando Geltokia / Estación,,43.2605451699782,-2.92816527312155,,,0,
11318,4262,Lurgorri Iparraguirre,,43.3067594297931,-2.68037201857377,,,0,
11319,0262,Kastrexana Industrialdea,,43.2608072494012,-2.97058601861648,,,0,
11320,5078,Eliza / Iglesia,,43.3804979986582,-2.98313655136968,,,0,
11321,5209,Otxaran Goikoa,,43.223239353897,-3.1676883981773,,,0,
11322,5198,Retola,,43.2224488138292,-3.17254255383464,,,0,
11323,3162,San Antonio Elguezabal,,43.1990837608339,-2.70710739118798,,,0,
11324,0109,Deustuko Unibersitatea Pio X Plaza,,43.2709081872312,-2.94159718733596,,,0,
11326,5282,Jose Luis Goioaga Axpeko Dartsena,,43.3088208387601,-2.97748429731481,,,0,
11327,3414,La Llana,,43.0998137793097,-3.04944916893265,,,0,
11328,3045,Mutriku,,43.3067962451022,-2.38826714930119,,,0,
11329,4456,Gobelaurre,,43.3318486368979,-3.00306605534733,,,0,
11330,4139,Los Chopos 46 Fadura,,43.3486672906967,-3.00058398962351,,,0,
11331,3907,Zeharkalea 31 Kiroldegia / Polideportivo,,43.1869833024729,-2.50817578386857,,,0,
11332,4935,Ibarzaharra Fondo Promoción Empleo,,43.2989366204361,-3.0091061633214,,,0,
11333,5013,El Minero Anbulatorioa,,43.3087764296042,-3.05230174405062,,,0,
11334,3943,Juan Bautista Uriarte 7 Plazakoetxe,,43.2299125836032,-2.84682637075718,,,0,
11335,5499,Loibe,,43.2436570672414,-2.99178067917766,,,0,
11336,4781,San Julian,,43.3322637802522,-3.11108728302824,,,0,
11337,0805,Olabeaga Avda. Montevideo,,43.2649909041063,-2.96119876267041,,,0,
11338,4405,Sarriena Irlandesas,,43.3336570996237,-2.98265054113299,,,0,
11339,4759,El Crucero,,43.3221292339247,-3.11562005230976,,,0,
11340,5147,Olazar,,43.1165180503866,-2.58440628634016,,,0,
11341,5416,Asua Plaza Sangroniz,,43.3003349647871,-2.94102594108166,,,0,
11343,4567,Udaletxea,,43.3793053063831,-2.86758206339126,,,0,
11344,3518,Max Center Aldaiturriaga,,43.2900217869628,-3.01187861350669,,,0,
11345,4404,J. M. Barandiaran Institutua,,43.333825936972,-2.97448982879352,,,0,
11346,3367,Retuerto Av. Euskadi,,43.2849786762889,-2.99433013280911,,,0,
11347,5446,Teknologia - Parkea Euskaltel,,43.2947547035981,-2.86114737571063,,,0,
11348,4249,Lazkao Kilómetro 11,,43.2292490149853,-3.01564873056649,,,0,
11349,4790,Elizabarri,,43.0434509308402,-2.65437999722506,,,0,
11350,4872,Azeta,,43.3147394152567,-3.01220343728069,,,0,
11351,3152,Meatzaritzaren Museoa / Museo De La Minería,,43.3117654614367,-3.07020934690609,,,0,
11352,3351,Murrieta Geltokia / Estación,,43.3002414429828,-2.98534108384181,,,0,
11353,4674,Basozabal Basabitxi,,43.3445952302664,-2.85460470260293,,,0,
11354,3145,El Bao,,43.3209973387413,-3.08070284462788,,,0,
11355,3928,Ibaizabal,,43.2317456807256,-2.85071321683939,,,0,
11357,5260,Santa Clara Komentua / Convento,,43.3135944963264,-2.87905889839796,,,0,
11358,5379,Elotxelerri Nafrisa,,43.2945262783831,-2.90111450217987,,,0,
11359,5421,San Juan,,43.2995531953478,-2.92827877805019,,,0,
11360,4774,Santelices,,43.316551104335,-3.11979033023058,,,0,
11361,5362,Plaiabarri,,43.2965995887944,-2.96673385647297,,,0,
11362,3807,Zumeltza Dima Gane,,43.0742059445537,-2.68319568935538,,,0,
11363,4400,Elexalde Sakoneta,,43.3258238984177,-2.98798132831645,,,0,
11365,5069,Sertutxa,,43.3814433266783,-2.97900640861422,,,0,
11366,4159,Zientoetxe 23 Saratxaga,,43.3713282290319,-3.0138070592136,,,0,
11367,5373,Astrabudua Plaza Etxegorri,,43.3167825672076,-2.9829467531893,,,0,
11369,1012,Bolueta Gasolindegia / Gasolinera,,43.2469007500022,-2.91184760827662,,,0,
11370,5241,Elejalde,,43.2110987925008,-2.87389614998683,,,0,
11458,3989,Gorostiza,,43.2611312087998,-3.10715241195807,,,0,
11459,0126,Botica Vieja Kotxetegia / Cocheras,,43.2697372189692,-2.94089233820909,,,0,
11460,3725,El Cerrillo,,43.2376497610099,-3.32583649591299,,,0,
11461,3684,Manzaneda,,43.2364391739811,-3.33038684159968,,,0,
11462,5387,Udaletxea / Ayuntamiento,,43.3143891600596,-2.93911301792221,,,0,
11463,3721,Ubal Mendatea / Puerto Ubal,,43.2180261709191,-3.41079585777541,,,0,
11464,3673,El Suceso,,43.2432574874157,-3.30356023536338,,,0,
11466,3252,Geltokia / La Estación,,43.2331098066625,-3.20057782373355,,,0,
11467,5391,Lauroeta Urdaneta,,43.3162131557481,-2.91974361983127,,,0,
11468,3681,Otides,,43.225756230823,-3.3809624389273,,,0,
11469,3234,Alisedo,,43.2534226557252,-3.23468317401255,,,0,
11470,5109,Malabrigo,,43.2173442488147,-3.17600240672328,,,0,
11471,3243,Laureta,,43.2429029813518,-3.25278655107232,,,0,
11472,3726,El Cerrillo,,43.2375142012293,-3.32600820059901,,,0,
11473,3237,La Cabareda,,43.2513612297795,-3.23876529339174,,,0,
11474,3774,Isasi,,43.1453903681774,-2.8313962288107,,,0,
11475,3728,Herboso,,43.2408173681479,-3.32335317215482,,,0,
11476,4390,Unbe - Mendi 24,,43.3392217735818,-2.92006430250401,,,0,
11477,3986,Pozolino,,43.2689184157383,-3.11815766741228,,,0,
11478,0124,Deustuko Unibertsitatea Avda. Universidades,,43.2701583954758,-2.93706311135101,,,0,
11479,3983,Villa,,43.267871880967,-3.1284448005034,,,0,
11480,3253,Puente Rolante,,43.2402991592569,-3.21833769594453,,,0,
11481,3254,Puente Rolante,,43.2404783579234,-3.2188063749267,,,0,
11482,3739,Sarasola,,43.1355993720106,-2.8016307728094,,,0,
11483,3994,Txabarri,,43.2415985191707,-3.09882917075204,,,0,
11484,3990,Garai,,43.2502322128039,-3.10588935262295,,,0,
11485,9046,Atxiga,,43.3512094414619,-3.09934283859632,,,0,
11486,4387,Unbe - Mendi 91,,43.3365586239668,-2.92327533781604,,,0,
11488,5294,Andramariturri,,43.3338739062894,-2.93551571416314,,,0,
11490,4376,Unbe - Mendi Hegoaldea / Sur,,43.3364516176757,-2.92485450659947,,,0,
11491,3680,Sangrices,,43.2144153391416,-3.42558266862648,,,0,
11492,3559,Mercabilbao,,43.2317588458085,-2.88566334186166,,,0,
11493,4379,Amezkarai,,43.3450345094478,-2.91438109958247,,,0,
11494,4952,Kurutzea / La Cruz,,43.2767166902263,-2.84561119176591,,,0,
11495,5107,El Mazo,,43.2222814332715,-3.18177694919248,,,0,
11496,3679,Sangrices,,43.2145941004858,-3.42594094788758,,,0,
11497,3660,El Suceso,,43.2433021507038,-3.30369594832282,,,0,
11498,3098,Henales,,43.2484524923462,-3.25965854229415,,,0,
11499,5101,Las Ribas,,43.2708851069753,-3.14629489398824,,,0,
11500,5389,Azoka / Ferial,,43.3114523517939,-2.92902907198751,,,0,
11502,5434,Lekunbiz,,43.2875132078321,-2.87515445451873,,,0,
11503,3711,San Ciprián,,43.2219420120398,-3.39317763823588,,,0,
11504,4658,Lorategi,,43.4052993907714,-2.69966874220034,,,0,
11505,4391,Unbe - Mendi 17,,43.3386921530147,-2.92245843212293,,,0,
11506,3242,Laureta,,43.2431014638873,-3.252614928887,,,0,
11507,5433,Domartiena,,43.2861934236859,-2.8705595400643,,,0,
11508,9043,Benigno Garay,,43.2659594164116,-3.25745498224471,,,0,
11510,5515,La Cuesta Udaletxea / Ayuntamiento,,43.3462203746261,-3.08908167372679,,,0,
11511,4956,Iberre,,43.2706251978358,-2.82407827693325,,,0,
11512,5386,Landatxueta,,43.3123808295565,-2.93527627854909,,,0,
11513,5384,Azoka / Ferial,,43.3113520455303,-2.92991333043546,,,0,
11515,3566,Etxerre,,43.2311363259733,-2.8678386286292,,,0,
11516,4383,Amezkarai,,43.344710943678,-2.91518351624042,,,0,
11517,3675,Ambasaguas,,43.2380328829566,-3.35750305091861,,,0,
11518,5062,Vega Nueva Araztegia / Depuradora,,43.306167482442,-2.99764014627072,,,0,
11520,3714,San Ciprián,,43.2219879230429,-3.39291935852983,,,0,
11521,4378,Ikus Bide,,43.3414262409604,-2.91786538692764,,,0,
11522,5396,Mikel Deunaren Enparantza,,43.3342807206905,-2.90150188151471,,,0,
11523,3231,La Toba,,43.2542977262566,-3.22486768784786,,,0,
11524,9026,Aiartza,,43.3067133343212,-2.89557563411388,,,0,
11525,5398,Goskoetxe Jatetxea,,43.3285037300089,-2.90498969589579,,,0,
11526,5382,Udaletxea / Ayuntamiento,,43.3142731416874,-2.93937826565985,,,0,
11527,5246,Udaletxea / Ayuntamiento,,43.2911639222978,-2.88753554508529,,,0,
11528,3716,Trespalacios,,43.2279167907158,-3.3729101654956,,,0,
11531,4384,Ikus Bide,,43.3414620905578,-2.9176309314611,,,0,
11532,3988,Larrea,,43.2445645699357,-3.10500510598437,,,0,
11533,3720,Ubal Mendatea / Puerto Ubal,,43.2174766302385,-3.41086604170726,,,0,
11534,5202,Otxaran,,43.2200515014947,-3.16780783691191,,,0,
11535,3678,Otides,,43.2260720454451,-3.38076738312505,,,0,
11536,3948,Zuazo,,43.2289936996175,-2.85339230482987,,,0,
11537,3241,El Peso,,43.2432926899747,-3.23896793453319,,,0,
11538,3985,Llano,,43.2697576602625,-3.12501072573101,,,0,
11539,3240,El Peso,,43.2433641863757,-3.23922687935568,,,0,
11540,5408,Ayalde,,43.3104998359562,-2.89957153257355,,,0,
11541,5407,La Merced Ikastetxea / Colegio,,43.3130917237961,-2.90516822170069,,,0,
11543,4392,Unbe - Mendi 8,,43.3366306769208,-2.92329991957883,,,0,
11544,5104,El Mazo,,43.2222745338186,-3.1804471079599,,,0,
11545,5388,Loiu,,43.3137421955157,-2.94068495748359,,,0,
11546,4386,Unbe - Mendi Hegoaldea - Sur,,43.3361815135376,-2.92490418426095,,,0,
11547,5245,Asteintza Apaiztegia / Seminario,,43.2900160384547,-2.88324805211778,,,0,
11548,3239,Traslosheros,,43.2478203662898,-3.23977400444559,,,0,
11550,3227,La Via,,43.244157089271,-3.22098743088673,,,0,
11551,4346,Kizkibil Vista Alegre,,43.2632590932061,-2.80187166216587,,,0,
11552,5228,Retola,,43.2221057051009,-3.17315724232077,,,0,
11553,3729,Sandelolla,,43.2187817289804,-3.43066113359871,,,0,
11554,3553,Kareaga Goikoa 113 Udaletxea / Ayuntamiento,,43.2349518259172,-2.89119931870482,,,0,
11555,4955,Txakoli Loroño,,43.2679761613883,-2.81727163919248,,,0,
11556,3730,Sandelolla,,43.2191517471345,-3.43044211266417,,,0,
11558,3095,Henales,,43.2485790040189,-3.25946198452032,,,0,
11559,3228,San Miguel,,43.2510814189273,-3.22108625466572,,,0,
11560,0258,Campo Volantín Funikularra,,43.2671093703225,-2.92783705443899,,,0,
11561,5110,Malabrigo,,43.2171212528636,-3.17631978738219,,,0,
11562,5106,La Herbosa,,43.2266678438897,-3.190559794859,,,0,
11563,5411,La Merced Ikastetxea / Colegio,,43.3125558307847,-2.90394578314436,,,0,
11564,3712,Treto,,43.2230492550023,-3.4061873476688,,,0,
11565,3722,Las Callejuelas,,43.2235398270837,-3.36755190808928,,,0,
11566,3676,Ambasaguas,,43.2380248402229,-3.35719509603099,,,0,
11567,3091,Palacio,,43.2563129266178,-3.26388061769403,,,0,
11568,5385,Larrakoetxe,,43.3129119148837,-2.92212176647096,,,0,
11570,5413,Loiu,,43.3151285872744,-2.94007934648579,,,0,
11571,3229,San Miguel,,43.2508383364254,-3.22111001322657,,,0,
11572,3991,Humaran,,43.2342802737001,-3.0957878358404,,,0,
11573,5235,Arkotxa,,43.2301284133096,-2.86444070733432,,,0,
11574,3569,Karmelo Torre 4,,43.2380594862465,-2.89718445522113,,,0,
11575,3093,La Matanza,,43.2446850104714,-3.26124383661555,,,0,
11576,3724,El Callejo 3,,43.2334435772205,-3.34773487115903,,,0,
11577,5225,Ligueti,,43.2155016662601,-3.13547690320582,,,0,
11578,5406,Iberre,,43.3127016941042,-2.91532990051213,,,0,
11579,5390,Larrakoetxe,,43.3117671894569,-2.9230961605792,,,0,
11581,5100,Laiseka Torre Loizaga,,43.2703844406024,-3.13982037828228,,,0,
11582,3251,Geltokia / La Estación,,43.2331823187114,-3.20030712384082,,,0,
11583,5295,Uribena,,43.3096873120177,-2.94312164218493,,,0,
11584,3775,Albitzu,,43.1406497855967,-2.81425785388043,,,0,
11585,5061,Carrefour,,43.2998103333621,-3.00130216720632,,,0,
11586,3236,La Cabareda,,43.2513789818247,-3.23888855287524,,,0,
11587,4903,Abaro 22,,43.3229098780273,-3.02107147639198,,,0,
11589,3096,Villanueva,,43.2485687261452,-3.2754883618259,,,0,
11590,0201,Campo Volantín La Salve,,43.2696599022936,-2.93143214826951,,,0,
11591,3741,Igertza,,43.13641157373,-2.79749672092301,,,0,
11592,4389,Unbe - Mendi 50,,43.3391226977902,-2.92002754561018,,,0,
11593,5412,Iberre,,43.3129168708205,-2.91407796041857,,,0,
11594,5400,Lauroeta Haritzmendi,,43.3233143966579,-2.9127939401727,,,0,
11595,4950,Elexalde,,43.2739889493698,-2.83325766289041,,,0,
11597,3701,Soscaño,,43.2225851180357,-3.36764467833904,,,0,
11598,3987,Soberrón,,43.2664375365508,-3.11380934445511,,,0,
11599,5393,Lauroeta Munabe,,43.3248502228024,-2.90786190124473,,,0,
11600,9044,Benigno Garay,,43.2660140536703,-3.25718412930839,,,0,
11602,5395,Lauroeta Aurrekoetxe,,43.3315511313065,-2.90432377836426,,,0,
11603,3727,Herboso,,43.2406656472466,-3.32287201267322,,,0,
11604,3992,Egoitza / Residencia,,43.2527635890989,-3.09959845355238,,,0,
11605,5405,Uribena,,43.3098150334483,-2.94283298200559,,,0,
11606,3248,Travesedo,,43.234668871057,-3.2050042549266,,,0,
11607,3226,La Via,,43.2443191251583,-3.22101265177044,,,0,
11609,5397,Lauroeta Aurrekoetxe,,43.3316610838007,-2.90443955696226,,,0,
11610,3674,Concha,,43.2250304467413,-3.36036978720399,,,0,
11612,3710,Llano,,43.2297350800081,-3.37586445044413,,,0,
11613,3671,Las Torcachas,,43.2381782038301,-3.31716884871973,,,0,
11614,5414,Elorritxu,,43.3222041287428,-2.93626139711462,,,0,
11615,3545,Artunduaga Kiroldegia / Polideportivo,,43.2334916089591,-2.88140254035832,,,0,
11616,5392,Lauroeta Haritzmendi,,43.3233428340805,-2.91230055747184,,,0,
11617,4347,Berresonaga Mirasol,,43.2648357395657,-2.80763311828807,,,0,
11618,3715,Llano,,43.229327567675,-3.37656387638909,,,0,
11619,5415,Elorritxu,,43.3221953229175,-2.93661907256853,,,0,
11621,4377,Unbe - Mendi Iparraldea / Norte,,43.3406712165813,-2.91977864866213,,,0,
11622,9045,Atxiga,,43.351074255654,-3.09947834891359,,,0,
11623,3662,Las Torcachas,,43.2382867707942,-3.31698466627203,,,0,
11625,5293,Andramariturri,,43.3336037695594,-2.93551599998406,,,0,
11626,5410,Ayalde,,43.3102821516246,-2.8988073746236,,,0,
11628,4895,General Castaños 50,,43.3221034944189,-3.02350209127727,,,0,
11629,3709,Trespalacio,,43.2278993835879,-3.37272534526305,,,0,
11630,5431,Larragoiti,,43.2809886522255,-2.85544793424262,,,0,
11632,3776,Undarraga,,43.1391259528832,-2.81028825164411,,,0,
11633,5432,Arteaga,,43.2845927442744,-2.86463426339537,,,0,
11634,3238,Traslosheros,,43.2477661319759,-3.23987233800112,,,0,
11635,5394,Goskoetxe Jatetxea,,43.3279689442599,-2.90509302901032,,,0,
11636,0445,Gran Vía 62,,43.2643788120794,-2.94072058388377,,,0,
11638,3249,Travesedo,,43.234605529319,-3.20517646150854,,,0,
11639,3233,La Tejera,,43.2566959081744,-3.23245348836133,,,0,
11640,3245,Helechosa,,43.2424130344103,-3.2098585648363,,,0,
11641,5402,Asua,,43.3043715356935,-2.94610188191933,,,0,
11642,3685,Manzaneda,,43.235737884131,-3.3300135771959,,,0,
11643,3713,Treto,,43.2224903630858,-3.4063560217805,,,0,
11645,3094,La Llana,,43.2441384329559,-3.26402526806104,,,0,
11646,3097,Villanueva,,43.2488112269087,-3.27574814310291,,,0,
11647,3099,La Llana,,43.244102016394,-3.26419755643453,,,0,
11648,5111,La Puente,,43.2698497261223,-3.25732350609498,,,0,
11649,3982,La Sierra,,43.2687647451473,-3.12718978048015,,,0,
11650,4385,Unbe - Mendi Iparrraldea / Norte,,43.340608228024,-2.9198404168178,,,0,
11651,3235,Alisedo,,43.2533145892915,-3.2347320366677,,,0,
11652,5401,Lauroeta Urdaneta,,43.3173845153987,-2.91840389540513,,,0,
11654,5221,La Llana,,43.2169706785133,-3.14195631429033,,,0,
11655,3743,Palometxe,,43.1335706768348,-2.79012888883714,,,0,
11656,5383,Landatxueta,,43.3122079518645,-2.93529495895402,,,0,
11657,3247,La Colorada San Miguel,,43.249011205544,-3.22068457367653,,,0,
11658,3700,Soscaño,,43.2237241829077,-3.36622316470804,,,0,
11659,3723,El Callejo 2,,43.2334056106389,-3.34837505532262,,,0,
11660,4951,Uzabal Athletic,,43.2759325431898,-2.84177302530168,,,0,
11661,5227,Retola,,43.222079137905,-3.17286165235035,,,0,
11662,3670,El Callejo,,43.2332856796283,-3.34333751259942,,,0,
11663,3570,Basozelai Karmelo Torre 22,,43.2363696051962,-2.89632394511678,,,0,
11664,3300,Atxukarro Industrialdea 4 Jatetxea,,43.21514107323,-2.89065626315545,,,0,
11665,3225,Traslaviña,,43.2413426558712,-3.21412888750998,,,0,
11666,5399,Lauroeta Munabe,,43.3250731944572,-2.90743851146722,,,0,
11667,4336,Lanestosa,,43.220318282091,-3.43867523094523,,,0,
11668,3246,La Colorada San Miguel,,43.2489484107024,-3.22056116172185,,,0,
11669,3232,La Tejera,,43.2568126676023,-3.23260177380886,,,0,
11670,5054,Urbinaga Metro,,43.3065004584249,-2.99292496232506,,,0,
11671,4388,Unbe - Mendi 55,,43.3386200664304,-2.92238450399968,,,0,
11672,5105,La Herbosa,,43.2265901420519,-3.19017560157632,,,0,
11673,3230,La Toba,,43.254388329083,-3.22458466992759,,,0,
11675,3663,El Callejo,,43.2334755143386,-3.3430922702961,,,0,
11676,3699,Concha,,43.2249671432949,-3.36045561011005,,,0,
11677,3244,Helechosa,,43.2425662941314,-3.20976055296719,,,0,
11678,5222,La Flor El Paraíso,,43.2199684481866,-3.15645518430509,,,0,
11679,5001,San Juan De Dios Zomillo,,43.3241289576195,-3.02611761868282,,,0,
11680,3976,San Pedro,,43.2546801454572,-3.099185787536,,,0,
11681,3954,Txomin Egileor Mercadillo,,43.2294158523499,-2.85972099427333,,,0,
11682,3092,Palacio,,43.25617757351,-3.26400323302906,,,0,
11683,3090,La Matanza,,43.2445862128637,-3.26113255564671,,,0,
11685,3224,Traslaviña,,43.2413240236205,-3.21446138096002,,,0,
11831,9050,Santimami,,43.2910517407757,-2.89280419822095,,,0,
11832,4150,Maidagan La Venta,,43.3616427526472,-3.01555004687704,,,0,
11833,9049,Santimami,,43.2912139508369,-2.89293951095515,,,0,
11834,9047,Ingelesena,,43.2796028630802,-2.59398718889492,,,0,
11835,4410,Ehu Ikasgelategiak / Aularios,,43.3306545214096,-2.96523433229764,,,0,
11836,4149,Maidagan Parkea,,43.3599054086875,-3.0109957908285,,,0,
11837,4164,Maidagan Parkea,,43.3599144573336,-3.01052683610644,,,0,
11838,4165,Maidagan La Venta,,43.3614176680013,-3.01534018794777,,,0,
11839,9048,Ingelesena,,43.2795616417241,-2.595059710638,,,0,
11841,1425,Basinagre,,43.283444, -3.258698,,,0,
11842,1421,La Quinta,,43.278939, -3.258620,,,0,
11851,3871,Zubialdea El Boquete,,43.243963, -2.903805,,,0,
11852,3871,Kareaga Goikoa 12 El Calero,,43.2384961986841,-2.89716647795273,,,0,
11853,3871,Kareaga Goikoa 26 Burritos,,43.2376831943024,-2.89433510538653,,,0,
11855,3871,Nagusia Begiratokia / Mirador,,43.235462172437,-2.88816872094415,,,0,
11856,3871,Agirre Lehendakaria 76 Ariz Dorretxea,,43.2360453418162,-2.88157124263306,,,0,
11857,3871,Urbi 2,,43.2373950054812,-2.87699808657274,,,0,
11858,3871,Urbi,,43.2393467134089,-2.87420691539806,,,0,
11860,3871,Bengoetxe - La Troka,,43.232134,-2.859028,,,0,
11862,3871,Urreta,,43.233949574757,-2.84905755948757,,,0,
11864,3871,Udaletxea/Ayuntamiento,,43.230680,-2.841823,,,0,
11866,3871,Abusu,,43.230614,-2.831393,,,0,
11867,3871,Olabarri,,43.231613,-2.824123,,,0,
11869,3871,Labeaga,,43.225085,-2.819923,,,0,
11870,3871,Ospitalea/Hospital,,43.223018,-2.819142,,,0,
11871,3871,Geltokia/Estación,,43.313780,-2.676745,,,0,
11874,3871,Uarka,,43.3185237468315,-2.65430406533222,,,0,
11875,3871,Belendiz,,43.319357,-2.643705,,,0,
11876,3871,Loitxiaga,,43.322633,-2.603130,,,0,
11877,3871,Argiarro,,43.318039, -2.588445,,,0,
11878,3871,Elexalde,,43.322135, -2.587272,,,0,
11879,3871,Burgoa,,43.315479, -2.667575,,,0,
11880,3871,Elexalde,,43.309623, -2.661687,,,0,
11881,3871,Ispizua,,43.307138, -2.657864,,,0,
11882,3871,Sagartzola,,43.304004, -2.655739,,,0,
11883,3871,Marmiz,,43.298613, -2.648658,,,0,
11884,3871,Elexalde,,43.281251, -2.643498,,,0,
11885,3871,Mestikabaso 5,,43.310724, -2.681787,,,0,
11886,3871,Zallo,,43.309933, -2.697974,,,0,
11887,3871,Eleizalde,,43.313901, -2.721949,,,0,
11888,3871,Errigoiti,,43.318753, -2.724617,,,0,
11889,3871,Urrutia,,43.332436, -2.507806,,,0,
11890,3871,Zelaia,,43.346583, -2.487228,,,0,
11891,3871,Zubia,,43.360517, -2.499271,,,0,
11892,3871,Eliza,,43.362938, -2.502390,,,0,
11893,3871,Inguru bidea,,43.411473, -2.935866,,,0,
11894,3871,Aita Gotzon (Metro Urduliz),,43.377841, -2.956327,,,0,
11895,3871,Orebille,,43.417259, -2.917265,,,0,
11896,3871,Udaletxea/Ayuntamiento Maruri,,43.379320, -2.867450,,,0,
11897,3871,Zeinka,,43.254926, -2.558884,,,0,
11898,3871,Gerrika,,43.252064, -2.572159,,,0,
11899,3871,Amotxebarri,,43.325440, -2.777870,,,0,
11900,3871,Ola,,43.319663, -2.745633,,,0,
11901,3871,Agirreta,,43.357005, -2.652883,,,0,
11902,3871,Isla Bekoa,,43.358726, -2.654495,,,0,
11903,3871,Isla Goikoa,,43.359466, -2.663433,,,0,
11904,3871,Ozamiz,,43.363057, -2.668103,,,0,
11905,3871,Kanala(Elexalde),,43.375200, -2.672066,,,0,
11906,3871,Kanala (Jantokia),,43.386454, -2.678812,,,0,
11907,3871,Laida (Kanpina/Camping),,43.395160, -2.680192,,,0,
11908,3871,Laida (Hondartza/Playa),,43.399055, -2.684622,,,0,
11909,3871,Gametxo,,43.406791, -2.679297,,,0,
11910,3871,Anzora,,43.409108, -2.678065,,,0,
11911,3871,Laga,,43.407838, -2.656842,,,0,
11912,3871,Lastarria,,43.398865, -2.646302,,,0,
11913,3871,Zubibarriaga,,43.393747, -2.642324,,,0,
11914,3871,Akorda,, 43.391520, -2.639642,,,0,
11915,3871,Durukiz,,43.390088, -2.634122,,,0,
11916,3871,Amotxebarri,,43.325520, -2.777969,,,0,
11917,3871,Ola,,43.319585, -2.745869,,,0,
11918,3871,Agirreta,,43.356486, -2.652133,,,0,
11919,3871,Isla Bekoa,,43.358119, -2.654162,,,0,
11920,3871,Isla Goikoa,,43.359542, -2.663682,,,0,
11921,3871,Ozamiz,,43.363710, -2.668196,,,0,
11922,3871,Kanala(Elexalde),,43.378690, -2.673497,,,0,
11923,3871,Kanala (Jantokia),,43.385490, -2.678315,,,0,
11924,3871,Laida (Kanpina/Camping),,43.395320, -2.680305,,,0,
11925,3871,Laida (Hondartza/Playa),,43.400789, -2.684713,,,0,
11926,3871,Gametxo,,43.406822, -2.679389,,,0,
11927,3871,Anzora,,43.409375, -2.677257,,,0,
11928,3871,Laga,,43.408166, -2.656013,,,0,
11929,3871,Lastarria,,43.398827, -2.646193,,,0,
11930,3871,Zubibarriaga,,43.392735, -2.641697,,,0,
11931,3871,Akorda,, 43.391523, -2.639928,,,0,
11932,3871,Durukiz,,43.390527, -2.635434,,,0,
11933,3871,Solarte,,43.350061, -2.542644,,,0,
11934,3871,Solarte,,43.349795, -2.542322,,,0,
11935,3871,Gallete,,43.351340, -2.547086,,,0,
11936,3871,Gallete,,43.350716, -2.546871,,,0,
11937,3871,Soloaran,,43.354279, -2.557148,,,0,
11938,3871,Soloaran,,43.353413, -2.558483,,,0,
11939,3871,Barainka,,43.354510, -2.560543,,,0,
9430,3965,Zabalgane Telefonica,,43.2301807522449,-2.8387718544499,,,0,